[{"number":18,"name":"18-VILNIAUS G.","address":"Vilniaus g. – Islandijos g. sankryža","latitude":54.68300406,"longitude":25.28001237},{"number":27,"name":"27-ŽALIASIS TILTAS","address":"Kalvarijų g. – Žvejų g. sankryža","latitude":54.69221264,"longitude":25.27933285},{"number":1,"name":"1-ARKIKATEDRA","address":"Šventaragio g.","latitude":54.68590826,"longitude":25.28560002},{"number":33,"name":"33-LIETUVOS VAIKŲ IR JAUNIMO CENTRAS","address":"Konstitucijos pr. (šalia Lietuvos vaikų ir jaunimo centro)","latitude":54.698543,"longitude":25.26644},{"number":10,"name":"10-KALNŲ PARKAS","address":"T. Kosciuškos g.","latitude":54.68866096,"longitude":25.29316907},{"number":38,"name":"38-ŠILO TILTAS","address":"Žirmūnų g. - Minties g. sankryža","latitude":54.705339,"longitude":25.304181},{"number":23,"name":"23-EUROPOS A.","address":"Konstitucijos pr. (Europos aikštė)","latitude":54.69546047,"longitude":25.2786606},{"number":25,"name":"25-PANORAMA","address":"Saltoniškių g. (PC „Panorama“)","latitude":54.69850622,"longitude":25.25819165},{"number":5,"name":"5-FILHARMONIJA","address":"Didžioji g. – Subačiaus g. sankryža","latitude":54.6762269,"longitude":25.28861228},{"number":20,"name":"20-TRAKŲ","address":"Pylimo g. (priešais kino teatrą „Lietuva“)","latitude":54.6791769,"longitude":25.27784234},{"number":28,"name":"28-OPEROS IR BALETO TEATRAS","address":"A. Vienuolio g. – A. Goštauto g. sankryža","latitude":54.69049166,"longitude":25.27821042},{"number":40,"name":"40-OGMIOS MIESTAS","address":"Lukšio g. (Ogmios miestas)","latitude":54.712375,"longitude":25.29664},{"number":36,"name":"36-AUTOBUSŲ STOTIS","address":"Geležinkelio g. – Stoties g. sankryža (šalia Autobusų stoties)","latitude":54.67059724,"longitude":25.28283084},{"number":29,"name":"29-ŽALGIRIO STADIONAS","address":"Rinktinės g. – A. Juozapavičiaus g. sankryžą","latitude":54.69180897,"longitude":25.28903636},{"number":26,"name":"26-EDUKOLOGIJOS UNIVERSITETAS","address":"Upės g. – Studentų g. sankryža","latitude":54.695651,"longitude":25.25728122},{"number":4,"name":"4-ŠV. KAZIMIERO BAŽNYČIA","address":"Didžioji g.","latitude":54.67788858,"longitude":25.28745212},{"number":11,"name":"11-KARALIAUS MINDAUGO","address":"Žygimantų g.","latitude":54.68870707,"longitude":25.28717553},{"number":21,"name":"21-VAŠINGTONO A.","address":"J. Tumo-Vaižganto g. – Lukiškių a. sankryža","latitude":54.69207484,"longitude":25.2711658},{"number":37,"name":"TEST STATION","address":"Jočionių","latitude":54.691713,"longitude":25.288714},{"number":6,"name":"6-HALĖS TURGAVIETĖ","address":"Visų Šventųjų g. – Bazilijonų g. sankryža","latitude":54.67422353,"longitude":25.2855307},{"number":19,"name":"19-S. NĖRIES GIMNAZIJA","address":"Vokiečių g. – Dominikonų g. sankryža","latitude":54.68094054,"longitude":25.28207902},{"number":15,"name":"15-M. MAŽVYDO BIBLIOTEKA","address":"Gedimino pr. – Gynėjų g. sankryža","latitude":54.69008355,"longitude":25.26344367},{"number":22,"name":"22-VCUP","address":"Upės g. (šalia VCUP)","latitude":54.6941691,"longitude":25.27496123},{"number":17,"name":"17-P. CVIRKOS","address":"Pamėnkalnio g. – Jogailos g. sankryža","latitude":54.68476062,"longitude":25.27703073},{"number":12,"name":"12-V. KUDIRKOS A.","address":"Gedimino pr. (V. Kudirkos aikštė)","latitude":54.68727317,"longitude":25.28012935},{"number":13,"name":"13-A. VIENUOLIO","address":"Gedimino pr.","latitude":54.68785091,"longitude":25.27663297},{"number":24,"name":"24-FORUM PALACE","address":"Upės g. – G. Baravyko g. sankryža","latitude":54.69631647,"longitude":25.26611228},{"number":3,"name":"3-K. SIRVYDO SKV.","address":"Pilies g. – Bokšto g. sankryža","latitude":54.68093041,"longitude":25.2884646},{"number":16,"name":"16-TAURO KALNAS","address":"Pamėnkalnio g. – Tauro g. sankryža","latitude":54.68681715,"longitude":25.27143064},{"number":7,"name":"7-STOTIS","address":"Seinų g. – Geležinkelio st. sankryža","latitude":54.67115499,"longitude":25.28417915},{"number":2,"name":"2-BARBOROS RADVILAITĖS","address":"Pilies g. – Radvilaitės g. sankryža","latitude":54.68447055,"longitude":25.28936958},{"number":39,"name":"39-ŠIAURĖS MIESTELIS","address":"Žirmūnų g. - Lukšio g. sankryža","latitude":54.711357,"longitude":25.304238},{"number":31,"name":"31-OLANDŲ ŽIEDAS","address":"Antakalnio g. – Olandų g. žiedinė sankryža (šalia Šv. Petro ir Povilo bažnyčios)","latitude":54.69332591,"longitude":25.30506775},{"number":9,"name":"9-UŽUPIS","address":"Užupio g. – Krivių g. sankryža","latitude":54.68114579,"longitude":25.29904378},{"number":14,"name":"14-LUKIŠKIŲ A.","address":"Gedimino av. – J. Tumo-Vaižganto str. crossing","latitude":54.68907997,"longitude":25.26938954},{"number":8,"name":"8-MAIRONIO G.","address":"Kūdrų g. – Maironio g. sankryža","latitude":54.67852,"longitude":25.29385654},{"number":30,"name":"30-IKI MINSKAS","address":"Žirmūnų g. – Tuskulėnų g. žiedinė sankryža (šalia PC IKI Minskas)","latitude":54.69678393,"longitude":25.29886217},{"number":35,"name":"35-VILNIAUS VARTAI","address":"A. Tumėno g.","latitude":54.69181762,"longitude":25.26346218}]