stop_id,stop_code,stop_name,stop_desc,stop_lat,stop_lon,stop_url,location_type,parent_station
9483,,"1-asis Lentvaris",,54.64436,25.06613,http://www.stops.lt/vilnius/index.html#stop/3906,,
9102,,"Bijūnų st.",,54.66724,25.21586,http://www.stops.lt/vilnius/index.html#stop/1631,,
8258,,"Kaimelio žiedas",,54.73125,25.24389,http://www.stops.lt/vilnius/index.html#stop/3890,,
9481,,"Bališkės",,54.64602,25.09879,http://www.stops.lt/vilnius/index.html#stop/3904,,
9482,,"Bališkės",,54.64620,25.09895,http://www.stops.lt/vilnius/index.html#stop/3905,,
1017,,"Antakalnio žiedas",,54.72291,25.31872,http://www.stops.lt/vilnius/index.html#stop/1118,,
5483,,"Antakalnio žiedas",,54.72232,25.31887,http://www.stops.lt/vilnius/index.html#stop/1118a,,
5485,,"Antakalnio žiedas",,54.72274,25.31912,http://www.stops.lt/vilnius/index.html#stop/1118c,,
5118,,"Antakalnis",,54.71960,25.31724,http://www.stops.lt/vilnius/index.html#stop/1115,,
6711,,"Antakalnis",,54.72106,25.31821,http://www.stops.lt/vilnius/index.html#stop/1116,,
5095,,"Klinikų st.",,54.71125,25.31486,http://www.stops.lt/vilnius/index.html#stop/1110,,
5096,,"Klinikų st.",,54.71058,25.31437,http://www.stops.lt/vilnius/index.html#stop/1109,,
5820,,"Leono Sapiegos st.",,54.69630,25.30809,http://www.stops.lt/vilnius/index.html#stop/1103,,
5826,,"Leono Sapiegos st.",,54.69697,25.30873,http://www.stops.lt/vilnius/index.html#stop/1104,,
5819,,"Petro Vileišio st.",,54.70165,25.30922,http://www.stops.lt/vilnius/index.html#stop/1105,,
6702,,"Petro Vileišio st.",,54.70313,25.31002,http://www.stops.lt/vilnius/index.html#stop/1106,,
5092,,"Šilo tiltas",,54.70545,25.31096,http://www.stops.lt/vilnius/index.html#stop/1108,,
5818,,"Šilo tiltas",,54.70447,25.31024,http://www.stops.lt/vilnius/index.html#stop/1107,,
1035,,"Tverečiaus st.",,54.71619,25.31646,http://www.stops.lt/vilnius/index.html#stop/1113,,
5119,,"Tverečiaus st.",,54.71750,25.31659,http://www.stops.lt/vilnius/index.html#stop/1114,,
5476,,"Lizdeikos st.",,54.72728,25.31552,http://www.stops.lt/vilnius/index.html#stop/1121,,
5490,,"Lizdeikos st.",,54.72720,25.31625,http://www.stops.lt/vilnius/index.html#stop/1132,,
741,,"Nemenčinės plentas",,54.72278,25.32004,http://www.stops.lt/vilnius/index.html#stop/1119,,
5117,,"Nemenčinės plentas",,54.72385,25.32007,http://www.stops.lt/vilnius/index.html#stop/1117,,
3566,,"Saulėtekis",,54.72719,25.32671,http://www.stops.lt/vilnius/index.html#stop/1021,,
5103,,"Saulėtekis",,54.72622,25.32482,http://www.stops.lt/vilnius/index.html#stop/1122,,
5107,,"Gedimino technikos universitetas",,54.72385,25.33566,http://www.stops.lt/vilnius/index.html#stop/1003,,
5116,,"Gedimino technikos universitetas",,54.72412,25.33451,http://www.stops.lt/vilnius/index.html#stop/1002,,
5104,,"Saulėtekis",,54.72621,25.32750,http://www.stops.lt/vilnius/index.html#stop/1001,,
5105,,"Vilniaus universitetas",,54.72454,25.33199,http://www.stops.lt/vilnius/index.html#stop/1023,,
6715,,"Vilniaus universitetas",,54.72488,25.33131,http://www.stops.lt/vilnius/index.html#stop/1022,,
5091,,"Šilo tiltas",,54.70519,25.31007,http://www.stops.lt/vilnius/index.html#stop/1129,,
6886,,"Lyglaukiai",,54.70277,25.35406,http://www.stops.lt/vilnius/index.html#stop/1126,,
6882,,"Šilo st.",,54.69898,25.34787,http://www.stops.lt/vilnius/index.html#stop/1127,,
6880,,"Viršupis",,54.69580,25.34423,http://www.stops.lt/vilnius/index.html#stop/1128,,
4520,,"Bistryčios st.",,54.70834,25.32978,http://www.stops.lt/vilnius/index.html#stop/1130,,
4521,,"Bistryčios st.",,54.70839,25.32956,http://www.stops.lt/vilnius/index.html#stop/1131,,
6720,,"Klinikų st.",,54.71161,25.31573,http://www.stops.lt/vilnius/index.html#stop/1112,,
6723,,"Klinikų st.",,54.71134,25.31669,http://www.stops.lt/vilnius/index.html#stop/1111,,
1167,,"Žolyno st.",,54.70782,25.33847,http://www.stops.lt/vilnius/index.html#stop/1125,,
8800,,"Klinikų st.",,54.71124,25.31498,http://www.stops.lt/vilnius/index.html#stop/1110a,,
9755,,"Mileišiškės",,54.71176,25.34174,http://www.stops.lt/vilnius/index.html#stop/2299,,
9756,,"Mileišiškės",,54.71172,25.34209,http://www.stops.lt/vilnius/index.html#stop/2298,,
9612,,"Mileišiškių sodai",,54.71312,25.34809,http://www.stops.lt/vilnius/index.html#stop/2399,,
9613,,"Mileišiškių sodai",,54.71297,25.34743,http://www.stops.lt/vilnius/index.html#stop/2400,,
9608,,"Anapilio st.",,54.70764,25.35853,http://www.stops.lt/vilnius/index.html#stop/2395,,
9609,,"Anapilio st.",,54.70771,25.35840,http://www.stops.lt/vilnius/index.html#stop/2396,,
9675,,"Viršupio sodai",,54.71267,25.35319,http://www.stops.lt/vilnius/index.html#stop/2397,,
9676,,"Viršupio sodai",,54.71332,25.35260,http://www.stops.lt/vilnius/index.html#stop/2398,,
7189,,"Agrastų st.",,54.62943,25.17703,http://www.stops.lt/vilnius/index.html#stop/5124,,
7910,,"Chemijos st.",,54.62689,25.14704,http://www.stops.lt/vilnius/index.html#stop/2810a,,
5747,,"Chemijos st.",,54.62650,25.15072,http://www.stops.lt/vilnius/index.html#stop/2811,,
5750,,"Prekybos st.",,54.62063,25.15741,http://www.stops.lt/vilnius/index.html#stop/2813,,
5751,,"Prekybos st.",,54.62128,25.15673,http://www.stops.lt/vilnius/index.html#stop/2812,,
7180,,"Kazbėjų žiedas",,54.61660,25.13801,http://www.stops.lt/vilnius/index.html#stop/2822,,
6449,,"Fermentų st.",,54.62471,25.14078,http://www.stops.lt/vilnius/index.html#stop/2801,,
6450,,"Fermentų st.",,54.62558,25.13985,http://www.stops.lt/vilnius/index.html#stop/2802,,
6455,,"Kazbėjų st.",,54.61584,25.14953,http://www.stops.lt/vilnius/index.html#stop/2807,,
6456,,"Kazbėjų st.",,54.61645,25.14909,http://www.stops.lt/vilnius/index.html#stop/2806,,
6457,,"Slėnis",,54.61215,25.15422,http://www.stops.lt/vilnius/index.html#stop/2808,,
6458,,"Slėnis",,54.61227,25.15440,http://www.stops.lt/vilnius/index.html#stop/2809,,
4531,,"Vytauto Andriaus Graičiūno st.",,54.60814,25.16000,http://www.stops.lt/vilnius/index.html#stop/2821,,
6453,,"Vokės st.",,54.62144,25.14314,http://www.stops.lt/vilnius/index.html#stop/2803,,
6454,,"Vokės st.",,54.61928,25.14517,http://www.stops.lt/vilnius/index.html#stop/2805,,
6469,,"Vokės st.",,54.61964,25.14504,http://www.stops.lt/vilnius/index.html#stop/2804,,
9311,,"Kadugių st.",,54.62743,25.17996,http://www.stops.lt/vilnius/index.html#stop/2949,,
9312,,"Kadugių st.",,54.62674,25.18154,http://www.stops.lt/vilnius/index.html#stop/2950,,
9308,,"Vasarotojų st.",,54.62497,25.18591,http://www.stops.lt/vilnius/index.html#stop/2947,,
9310,,"Vasarotojų st.",,54.62522,25.18518,http://www.stops.lt/vilnius/index.html#stop/2948,,
9200,,"Baltoji Vokė",,54.60369,25.19337,http://www.stops.lt/vilnius/index.html#stop/5111,,
9201,,"Baltoji Vokė",,54.60334,25.19387,http://www.stops.lt/vilnius/index.html#stop/5110,,
9726,,"Juodšilių st.",,54.61669,25.16242,http://www.stops.lt/vilnius/index.html#stop/2814,,
9727,,"Juodšilių st.",,54.61658,25.16230,http://www.stops.lt/vilnius/index.html#stop/2820,,
9115,,"Fermentų st.",,54.62654,25.13932,http://www.stops.lt/vilnius/index.html#stop/2802a,,
9298,,"Vilniaus Pergalė",,54.61410,25.15204,http://www.stops.lt/vilnius/index.html#stop/2823,,
9303,,"Zuikių st.",,54.63239,25.19866,http://www.stops.lt/vilnius/index.html#stop/2946,,
7080,,"1-osios Bukiškės",,54.76356,25.20003,http://www.stops.lt/vilnius/index.html#stop/4902,,
7082,,"2-osios Bukiškės",,54.76309,25.19852,http://www.stops.lt/vilnius/index.html#stop/4901,,
9818,,"Daubų st.",,54.75730,25.23133,http://www.stops.lt/vilnius/index.html#stop/2153,,
9970,,"Bajorų miškas",,54.75633,25.24233,http://www.stops.lt/vilnius/index.html#stop/2154,,
9971,,"Bajorų miškas",,54.75626,25.24250,http://www.stops.lt/vilnius/index.html#stop/2155,,
9693,,"Mokslininkų st.",,54.75445,25.24977,http://www.stops.lt/vilnius/index.html#stop/2150,,
9694,,"Mokslininkų st.",,54.75454,25.24930,http://www.stops.lt/vilnius/index.html#stop/2149,,
9815,,"Riaubonių st.",,54.75526,25.23294,http://www.stops.lt/vilnius/index.html#stop/2152,,
9496,,"Bajorai",,54.75674,25.23716,http://www.stops.lt/vilnius/index.html#stop/2148,,
9053,,"Ragės st.",,54.78495,25.35139,http://www.stops.lt/vilnius/index.html#stop/2261,,
9054,,"Ragės st.",,54.78477,25.35175,http://www.stops.lt/vilnius/index.html#stop/2262,,
9081,,"Balsių mokykla",,54.78070,25.35952,http://www.stops.lt/vilnius/index.html#stop/2259,,
9045,,"Austėjos st.",,54.77823,25.34554,http://www.stops.lt/vilnius/index.html#stop/2255,,
9046,,"Austėjos st.",,54.77817,25.34615,http://www.stops.lt/vilnius/index.html#stop/2256,,
9047,,"Žalčių st.",,54.77819,25.35032,http://www.stops.lt/vilnius/index.html#stop/2257,,
9048,,"Žalčių st.",,54.77807,25.35124,http://www.stops.lt/vilnius/index.html#stop/2258,,
8315,,"Balsiai",,54.78595,25.34779,http://www.stops.lt/vilnius/index.html#stop/2222,,
9798,,"Balsiai",,54.78604,25.34776,http://www.stops.lt/vilnius/index.html#stop/2263,,
5822,,"Ateities st.",,54.73682,25.26515,http://www.stops.lt/vilnius/index.html#stop/2101,,
5828,,"Ateities st.",,54.73707,25.26672,http://www.stops.lt/vilnius/index.html#stop/2002,,
6640,,"Kalvarijos",,54.73933,25.27535,http://www.stops.lt/vilnius/index.html#stop/2112,,
6633,,"Rugių st.",,54.73819,25.27044,http://www.stops.lt/vilnius/index.html#stop/5143,,
6634,,"Rugių st.",,54.73801,25.26928,http://www.stops.lt/vilnius/index.html#stop/5142,,
348,,"Ateities st.",,54.73600,25.26599,http://www.stops.lt/vilnius/index.html#stop/2017,,
5827,,"Ateities st.",,54.73630,25.26656,http://www.stops.lt/vilnius/index.html#stop/2019,,
6773,,"Ateities st.",,54.73750,25.26584,http://www.stops.lt/vilnius/index.html#stop/2102,,
6776,,"Mokyklos st.",,54.74535,25.26338,http://www.stops.lt/vilnius/index.html#stop/2103,,
6777,,"Mokyklos st.",,54.74629,25.26375,http://www.stops.lt/vilnius/index.html#stop/2104,,
5835,,"Baltupiai",,54.72758,25.27858,http://www.stops.lt/vilnius/index.html#stop/2010,,
5833,,"Didlaukio st.",,54.72903,25.26926,http://www.stops.lt/vilnius/index.html#stop/2008,,
5834,,"Didlaukio st.",,54.72915,25.27162,http://www.stops.lt/vilnius/index.html#stop/2009,,
6500,,"Jeruzalė",,54.74415,25.27788,http://www.stops.lt/vilnius/index.html#stop/2115,,
6501,,"Jeruzalė",,54.74295,25.27691,http://www.stops.lt/vilnius/index.html#stop/2114,,
6497,,"Kalvarijos",,54.73997,25.27677,http://www.stops.lt/vilnius/index.html#stop/2113,,
5836,,"Baltupiai",,54.72688,25.28001,http://www.stops.lt/vilnius/index.html#stop/2011,,
6487,,"Baltupiai",,54.72828,25.28013,http://www.stops.lt/vilnius/index.html#stop/2018,,
6494,,"Kalvarijos",,54.73854,25.27686,http://www.stops.lt/vilnius/index.html#stop/2003,,
5839,,"Naujakiemio st.",,54.72387,25.28144,http://www.stops.lt/vilnius/index.html#stop/2012,,
5840,,"Naujakiemio st.",,54.72467,25.28114,http://www.stops.lt/vilnius/index.html#stop/2013,,
6488,,"Pušynas",,54.73436,25.27891,http://www.stops.lt/vilnius/index.html#stop/2006,,
6489,,"Pušynas",,54.73328,25.27880,http://www.stops.lt/vilnius/index.html#stop/2007,,
6491,,"Seminarija",,54.73702,25.27791,http://www.stops.lt/vilnius/index.html#stop/2004,,
6492,,"Seminarija",,54.73576,25.27801,http://www.stops.lt/vilnius/index.html#stop/2005,,
6748,,"Buivydiškės",,54.71679,25.19655,http://www.stops.lt/vilnius/index.html#stop/4402,,
6749,,"Buivydiškės",,54.71738,25.19694,http://www.stops.lt/vilnius/index.html#stop/4403,,
6751,,"Sodų st.",,54.72409,25.18789,http://www.stops.lt/vilnius/index.html#stop/4404,,
6752,,"Sodų st.",,54.72432,25.18712,http://www.stops.lt/vilnius/index.html#stop/4405,,
6743,,"Tvenkinių st.",,54.71065,25.20082,http://www.stops.lt/vilnius/index.html#stop/3403,,
6746,,"Tvenkinių st.",,54.71103,25.20060,http://www.stops.lt/vilnius/index.html#stop/4401,,
10280,,"Sidaronių st.",,54.70881,25.20298,http://www.stops.lt/vilnius/index.html#stop/3404,,
10281,,"Sidaronių st.",,54.70795,25.20358,http://www.stops.lt/vilnius/index.html#stop/3405,,
5378,,"Kalvarijų turgus",,54.69931,25.28249,http://www.stops.lt/vilnius/index.html#stop/0703,,
6843,,"Kalvarijų turgus",,54.70019,25.28301,http://www.stops.lt/vilnius/index.html#stop/0704,,
5244,,"Žaliasis tiltas",,54.69234,25.28003,http://www.stops.lt/vilnius/index.html#stop/0102,,
5245,,"Žaliasis tiltas",,54.69236,25.28048,http://www.stops.lt/vilnius/index.html#stop/0101,,
753,,"Europos aikštė",,54.69564,25.27743,http://www.stops.lt/vilnius/index.html#stop/0104,,
5239,,"Europos aikštė",,54.69544,25.27698,http://www.stops.lt/vilnius/index.html#stop/0103,,
988,,"Lietuvos sąjūdžio kelias",,54.69853,25.26650,http://www.stops.lt/vilnius/index.html#stop/0106,,
6635,,"Lietuvos sąjūdžio kelias",,54.69825,25.26630,http://www.stops.lt/vilnius/index.html#stop/0105,,
7381,,"Nacionalinė dailės galerija",,54.69671,25.27311,http://www.stops.lt/vilnius/index.html#stop/0113,,
7382,,"Nacionalinė dailės galerija",,54.69768,25.27115,http://www.stops.lt/vilnius/index.html#stop/0114,,
7769,,"Šnipiškės",,54.69983,25.26892,http://www.stops.lt/vilnius/index.html#stop/0115,,
677,,"Lvovo st.",,54.69457,25.28387,http://www.stops.lt/vilnius/index.html#stop/0110,,
5667,,"Lvovo st.",,54.69448,25.28276,http://www.stops.lt/vilnius/index.html#stop/0109,,
5539,,"Alberto Goštauto st.",,54.69456,25.26747,http://www.stops.lt/vilnius/index.html#stop/0221,,
5248,,"Operos ir baleto teatras",,54.69081,25.27732,http://www.stops.lt/vilnius/index.html#stop/0233,,
5249,,"Operos ir baleto teatras",,54.69123,25.27574,http://www.stops.lt/vilnius/index.html#stop/0232,,
474,,"Gedimino prospektas",,54.68909,25.26261,http://www.stops.lt/vilnius/index.html#stop/0219,,
5774,,"Gedimino prospektas",,54.68894,25.26208,http://www.stops.lt/vilnius/index.html#stop/0220,,
5459,,"Jogailos st.",,54.68527,25.27815,http://www.stops.lt/vilnius/index.html#stop/0207,,
5881,,"Jokūbo Jasinskio st.",,54.68812,25.26329,http://www.stops.lt/vilnius/index.html#stop/0218,,
5937,,"Jokūbo Jasinskio st.",,54.68828,25.26352,http://www.stops.lt/vilnius/index.html#stop/0217,,
5936,,"Pamėnkalnio st.",,54.68784,25.26659,http://www.stops.lt/vilnius/index.html#stop/0216,,
6736,,"Juozo Tumo-Vaižganto st.",,54.68958,25.26922,http://www.stops.lt/vilnius/index.html#stop/0226,,
5257,,"Kražių st.",,54.69179,25.27091,http://www.stops.lt/vilnius/index.html#stop/0224,,
5258,,"Kražių st.",,54.69172,25.27116,http://www.stops.lt/vilnius/index.html#stop/0225,,
6356,,"Lukiškės",,54.69090,25.27072,http://www.stops.lt/vilnius/index.html#stop/0231,,
7663,,"Lukiškės",,54.69037,25.27231,http://www.stops.lt/vilnius/index.html#stop/0236,,
7664,,"Lukiškės",,54.69056,25.27045,http://www.stops.lt/vilnius/index.html#stop/0230a,,
5259,,"Vašingtono aikštė",,54.69160,25.26987,http://www.stops.lt/vilnius/index.html#stop/0223,,
5334,,"Islandijos st.",,54.68500,25.27641,http://www.stops.lt/vilnius/index.html#stop/0212,,
5332,,"Pamėnkalnio st.",,54.68736,25.26934,http://www.stops.lt/vilnius/index.html#stop/0215,,
5338,,"Centro poliklinika",,54.68371,25.27701,http://www.stops.lt/vilnius/index.html#stop/0235,,
7238,,"Arkikatedra",,54.68665,25.28644,http://www.stops.lt/vilnius/index.html#stop/0203,,
7245,,"Arkikatedra",,54.68649,25.28666,http://www.stops.lt/vilnius/index.html#stop/0405,,
893,,"Vinco Kudirkos aikštė",,54.68775,25.27985,http://www.stops.lt/vilnius/index.html#stop/0210a,,
5409,,"Vinco Kudirkos aikštė",,54.68871,25.27982,http://www.stops.lt/vilnius/index.html#stop/0211,,
5492,,"Vinco Kudirkos aikštė",,54.68753,25.27980,http://www.stops.lt/vilnius/index.html#stop/0210,,
5264,,"Juozo Tumo-Vaižganto st.",,54.68835,25.26799,http://www.stops.lt/vilnius/index.html#stop/0214,,
848,,"Karaliaus Mindaugo tiltas",,54.68858,25.28741,http://www.stops.lt/vilnius/index.html#stop/0201,,
6855,,"Karaliaus Mindaugo tiltas",,54.68867,25.28663,http://www.stops.lt/vilnius/index.html#stop/0202,,
9004,,"Antano Tumėno st.",,54.69221,25.26145,http://www.stops.lt/vilnius/index.html#stop/0237,,
9006,,"Nepriklausomybės aikštė",,54.68951,25.26522,http://www.stops.lt/vilnius/index.html#stop/0238,,
6179,,"Keramikų st.",,54.72949,25.37465,http://www.stops.lt/vilnius/index.html#stop/1012,,
6180,,"Keramikų st.",,54.72956,25.37489,http://www.stops.lt/vilnius/index.html#stop/1013,,
456,,"Galgiai",,54.72022,25.41132,http://www.stops.lt/vilnius/index.html#stop/4602,,
6895,,"Gvazdikų st.",,54.74315,25.39835,http://www.stops.lt/vilnius/index.html#stop/3528,,
6896,,"Gvazdikų st.",,54.74366,25.39804,http://www.stops.lt/vilnius/index.html#stop/3527,,
6190,,"Lubinų st.",,54.72959,25.41217,http://www.stops.lt/vilnius/index.html#stop/1018,,
6191,,"Lubinų st.",,54.72898,25.41189,http://www.stops.lt/vilnius/index.html#stop/1024,,
6188,,"Paliuliškės",,54.73365,25.41033,http://www.stops.lt/vilnius/index.html#stop/1016,,
6189,,"Paliuliškės",,54.73315,25.41064,http://www.stops.lt/vilnius/index.html#stop/1017,,
6192,,"Purienų st.",,54.72529,25.41212,http://www.stops.lt/vilnius/index.html#stop/1025,,
6193,,"Purienų st.",,54.72575,25.41235,http://www.stops.lt/vilnius/index.html#stop/4601,,
429,,"Dvarčionys",,54.72972,25.37052,http://www.stops.lt/vilnius/index.html#stop/1011,,
6181,,"Dvarčionys",,54.72986,25.37033,http://www.stops.lt/vilnius/index.html#stop/1026,,
6173,,"Aukštagiris",,54.73049,25.35577,http://www.stops.lt/vilnius/index.html#stop/3523,,
6174,,"Aukštagiris",,54.73057,25.35661,http://www.stops.lt/vilnius/index.html#stop/1008,,
6183,,"Baniškės",,54.73449,25.38812,http://www.stops.lt/vilnius/index.html#stop/1014,,
6184,,"Baniškės",,54.73451,25.38710,http://www.stops.lt/vilnius/index.html#stop/3525,,
6176,,"Dvarčionių kryžkelė",,54.73347,25.37073,http://www.stops.lt/vilnius/index.html#stop/1009,,
6177,,"Dvarčionių kryžkelė",,54.73344,25.36972,http://www.stops.lt/vilnius/index.html#stop/3524,,
6185,,"Kairėnai",,54.73623,25.40042,http://www.stops.lt/vilnius/index.html#stop/3526,,
6186,,"Kairėnai",,54.73625,25.40082,http://www.stops.lt/vilnius/index.html#stop/1015,,
6170,,"Plytinės st.",,54.72791,25.34778,http://www.stops.lt/vilnius/index.html#stop/1007,,
6171,,"Plytinės st.",,54.72762,25.34671,http://www.stops.lt/vilnius/index.html#stop/1006,,
900,,"Senoji plytinė",,54.72416,25.34075,http://www.stops.lt/vilnius/index.html#stop/1005,,
6239,,"Senoji plytinė",,54.72403,25.33967,http://www.stops.lt/vilnius/index.html#stop/1004,,
6898,,"Žemoji Veržuva",,54.74985,25.40133,http://www.stops.lt/vilnius/index.html#stop/3529,,
6899,,"Žemoji Veržuva",,54.74975,25.40141,http://www.stops.lt/vilnius/index.html#stop/3530,,
8250,,"Keramikų st.",,54.72937,25.37476,http://www.stops.lt/vilnius/index.html#stop/1027,,
9925,,"Vinciūniškės",,54.75919,25.39500,http://www.stops.lt/vilnius/index.html#stop/3561,,
5807,,"Antano Jonyno st.",,54.73137,25.24744,http://www.stops.lt/vilnius/index.html#stop/3817,,
5808,,"Antano Jonyno st.",,54.73156,25.24893,http://www.stops.lt/vilnius/index.html#stop/3818,,
5804,,"Kaimelio st.",,54.73066,25.24621,http://www.stops.lt/vilnius/index.html#stop/5159,,
5810,,"Liudo Giros st.",,54.73376,25.25421,http://www.stops.lt/vilnius/index.html#stop/3822,,
5812,,"Liudo Giros st.",,54.73329,25.25210,http://www.stops.lt/vilnius/index.html#stop/3819,,
5814,,"Mykolo Romerio universitetas",,54.73517,25.25795,http://www.stops.lt/vilnius/index.html#stop/3823,,
5815,,"Mykolo Romerio universitetas",,54.73531,25.25976,http://www.stops.lt/vilnius/index.html#stop/2001,,
5803,,"Kaimelio žiedas",,54.73160,25.24446,http://www.stops.lt/vilnius/index.html#stop/3813,,
5511,,"Fabijoniškių žiedas",,54.73933,25.24044,http://www.stops.lt/vilnius/index.html#stop/3809,,
5515,,"Gedvydžių st.",,54.73634,25.23730,http://www.stops.lt/vilnius/index.html#stop/3806,,
5516,,"Gedvydžių st.",,54.73689,25.23809,http://www.stops.lt/vilnius/index.html#stop/3807,,
1158,,"Fabijoniškių žiedas",,54.73906,25.24147,http://www.stops.lt/vilnius/index.html#stop/3810,,
5512,,"Fabijoniškių žiedas",,54.74009,25.24062,http://www.stops.lt/vilnius/index.html#stop/3811,,
5811,,"Liudo Giros st.",,54.73400,25.25311,http://www.stops.lt/vilnius/index.html#stop/3820,,
6913,,"Pijaus Žadeikos st.",,54.73504,25.24753,http://www.stops.lt/vilnius/index.html#stop/3816,,
6915,,"Pijaus Žadeikos st.",,54.73552,25.24623,http://www.stops.lt/vilnius/index.html#stop/3831,,
6914,,"Pijaus Žadeikos st.",,54.73490,25.24626,http://www.stops.lt/vilnius/index.html#stop/3815,,
6763,,"Sporto gimnazija",,54.73161,25.24241,http://www.stops.lt/vilnius/index.html#stop/3812,,
6911,,"Sporto gimnazija",,54.73299,25.24470,http://www.stops.lt/vilnius/index.html#stop/3814,,
7811,,"Liudviko Zamenhofo st.",,54.74106,25.22889,http://www.stops.lt/vilnius/index.html#stop/3835,,
7809,,"Salomėjos Nėries st.",,54.73729,25.23245,http://www.stops.lt/vilnius/index.html#stop/3833,,
7810,,"Salomėjos Nėries st.",,54.73817,25.23175,http://www.stops.lt/vilnius/index.html#stop/3834,,
5518,,"Takas",,54.73296,25.23689,http://www.stops.lt/vilnius/index.html#stop/3803,,
5519,,"Takas",,54.73396,25.23608,http://www.stops.lt/vilnius/index.html#stop/3804,,
6924,,"Jovaro st.",,54.72287,25.25407,http://www.stops.lt/vilnius/index.html#stop/3829,,
6926,,"Jovaro st.",,54.72384,25.25396,http://www.stops.lt/vilnius/index.html#stop/3828,,
5813,,"Liudo Giros st.",,54.73313,25.25369,http://www.stops.lt/vilnius/index.html#stop/3821,,
6917,,"Pamiškė",,54.72958,25.25452,http://www.stops.lt/vilnius/index.html#stop/3825,,
6918,,"Pamiškė",,54.73041,25.25490,http://www.stops.lt/vilnius/index.html#stop/3824,,
6921,,"Simono Stanevičiaus st.",,54.72520,25.25372,http://www.stops.lt/vilnius/index.html#stop/3827,,
6922,,"Simono Stanevičiaus st.",,54.72610,25.25418,http://www.stops.lt/vilnius/index.html#stop/3826,,
446,,"Fabijoniškės",,54.73145,25.23739,http://www.stops.lt/vilnius/index.html#stop/3802,,
481,,"Gedvydžių st.",,54.73463,25.23419,http://www.stops.lt/vilnius/index.html#stop/3805,,
5443,,"Gedvydžių st.",,54.73413,25.23420,http://www.stops.lt/vilnius/index.html#stop/3322,,
4388,,"Igno Šeiniaus st.",,54.72146,25.24426,http://www.stops.lt/vilnius/index.html#stop/3832,,
5451,,"Igno Šeiniaus st.",,54.72179,25.24353,http://www.stops.lt/vilnius/index.html#stop/3325,,
823,,"Stasio Lozoraičio st.",,54.72440,25.24251,http://www.stops.lt/vilnius/index.html#stop/3801,,
5450,,"Stasio Lozoraičio st.",,54.72401,25.24241,http://www.stops.lt/vilnius/index.html#stop/3323,,
8269,,"Kaimelio st.",,54.73049,25.24441,http://www.stops.lt/vilnius/index.html#stop/3839,,
8270,,"Kaimelio žiedas",,54.73155,25.24488,http://www.stops.lt/vilnius/index.html#stop/3840,,
8290,,"Liudviko Zamenhofo st.",,54.74203,25.22754,http://www.stops.lt/vilnius/index.html#stop/3836,,
8289,,"Mykolo Lietuvio st.",,54.74374,25.22553,http://www.stops.lt/vilnius/index.html#stop/3837,,
9152,,"Perkūno st.",,54.73936,25.22774,http://www.stops.lt/vilnius/index.html#stop/3331,,
6198,,"Vakario st.",,54.71454,25.41260,http://www.stops.lt/vilnius/index.html#stop/4604,,
5728,,"Fizikos institutas",,54.64212,25.18254,http://www.stops.lt/vilnius/index.html#stop/2903,,
5742,,"Galvės st.",,54.63267,25.15079,http://www.stops.lt/vilnius/index.html#stop/2910,,
5731,,"Lentvario st.",,54.63874,25.17833,http://www.stops.lt/vilnius/index.html#stop/2904,,
5732,,"Lentvario st.",,54.63836,25.17726,http://www.stops.lt/vilnius/index.html#stop/2905,,
7055,,"Stasylų st.",,54.62871,25.13342,http://www.stops.lt/vilnius/index.html#stop/2941,,
7056,,"Stasylų st.",,54.62829,25.13073,http://www.stops.lt/vilnius/index.html#stop/2940,,
4410,,"Vilijos st.",,54.63595,25.17316,http://www.stops.lt/vilnius/index.html#stop/2937,,
5738,,"Vilijos st.",,54.63544,25.17141,http://www.stops.lt/vilnius/index.html#stop/2938,,
6297,,"Gariūnai",,54.65892,25.15913,http://www.stops.lt/vilnius/index.html#stop/2927,,
6609,,"Gariūnai",,54.65908,25.16073,http://www.stops.lt/vilnius/index.html#stop/2928,,
6309,,"Vandenvala",,54.66563,25.17339,http://www.stops.lt/vilnius/index.html#stop/2933,,
6310,,"Vandenvala",,54.66563,25.17389,http://www.stops.lt/vilnius/index.html#stop/2934,,
413,,"Deguonies st.",,54.63601,25.14652,http://www.stops.lt/vilnius/index.html#stop/2911,,
414,,"Deguonies st.",,54.63568,25.14677,http://www.stops.lt/vilnius/index.html#stop/2912,,
504,,"Granito st.",,54.63737,25.14366,http://www.stops.lt/vilnius/index.html#stop/2913,,
7730,,"Elektrinės st.",,54.66746,25.16205,http://www.stops.lt/vilnius/index.html#stop/2932,,
7731,,"Elektrinės st.",,54.66774,25.16234,http://www.stops.lt/vilnius/index.html#stop/2944,,
6296,,"Gariūnai",,54.66002,25.16056,http://www.stops.lt/vilnius/index.html#stop/2926,,
6300,,"Jočionys",,54.66413,25.16171,http://www.stops.lt/vilnius/index.html#stop/2930,,
6301,,"Jočionys",,54.66474,25.16189,http://www.stops.lt/vilnius/index.html#stop/2931,,
6294,,"Kauno plentas",,54.65505,25.15097,http://www.stops.lt/vilnius/index.html#stop/2925,,
6295,,"Kauno plentas",,54.65424,25.15088,http://www.stops.lt/vilnius/index.html#stop/2924,,
6290,,"Kulokiškės",,54.64564,25.14227,http://www.stops.lt/vilnius/index.html#stop/2922,,
6291,,"Kulokiškės",,54.64538,25.14395,http://www.stops.lt/vilnius/index.html#stop/2923,,
6282,,"Liudvinava",,54.64716,25.12816,http://www.stops.lt/vilnius/index.html#stop/2936,,
6283,,"Liudvinava",,54.64705,25.12837,http://www.stops.lt/vilnius/index.html#stop/2935,,
6286,,"Mūrinė Vokė",,54.64828,25.12176,http://www.stops.lt/vilnius/index.html#stop/3901,,
6601,,"Gariūnų st.",,54.65590,25.14866,http://www.stops.lt/vilnius/index.html#stop/2942,,
6602,,"Gariūnų st.",,54.65296,25.15455,http://www.stops.lt/vilnius/index.html#stop/2943,,
4455,,"Prekybos bazė",,54.65806,25.13807,http://www.stops.lt/vilnius/index.html#stop/2939,,
5564,,"Valkininkų st.",,54.64395,25.19972,http://www.stops.lt/vilnius/index.html#stop/2901,,
357,,"Aukštieji Paneriai",,54.63135,25.17403,http://www.stops.lt/vilnius/index.html#stop/2906,,
6278,,"Asfalto st.",,54.64480,25.13449,http://www.stops.lt/vilnius/index.html#stop/2920,,
6279,,"Asfalto st.",,54.64519,25.13463,http://www.stops.lt/vilnius/index.html#stop/2921,,
6276,,"Liudvinavo st.",,54.64015,25.13522,http://www.stops.lt/vilnius/index.html#stop/2919,,
6277,,"Liudvinavo st.",,54.64067,25.13522,http://www.stops.lt/vilnius/index.html#stop/2918,,
6273,,"Šešėlių st.",,54.63715,25.13563,http://www.stops.lt/vilnius/index.html#stop/2917,,
6274,,"Šešėlių st.",,54.63760,25.13566,http://www.stops.lt/vilnius/index.html#stop/2916,,
6270,,"Žarijų st.",,54.63239,25.14007,http://www.stops.lt/vilnius/index.html#stop/2914,,
6271,,"Žarijų st.",,54.63223,25.14053,http://www.stops.lt/vilnius/index.html#stop/2915,,
9776,,"Galvės st.",,54.63257,25.15107,http://www.stops.lt/vilnius/index.html#stop/2908,,
9626,,"Mūrinė Vokė",,54.64838,25.12157,http://www.stops.lt/vilnius/index.html#stop/3911,,
9627,,"Stasio Krasausko st.",,54.64433,25.09079,http://www.stops.lt/vilnius/index.html#stop/3912,,
9628,,"Stasio Krasausko st.",,54.64446,25.09120,http://www.stops.lt/vilnius/index.html#stop/3913,,
8784,,"Aukštieji Paneriai",,54.63126,25.17376,http://www.stops.lt/vilnius/index.html#stop/2945,,
4479,,"Naujosios Gineitiškės",,54.73594,25.20155,http://www.stops.lt/vilnius/index.html#stop/4407,,
7395,,"Naujosios Gineitiškės",,54.73583,25.20248,http://www.stops.lt/vilnius/index.html#stop/4411,,
6032,,"Grigaičiai",,54.68083,25.41321,http://www.stops.lt/vilnius/index.html#stop/5160,,
4965,,"Grigaičių žiedas",,54.66430,25.41555,http://www.stops.lt/vilnius/index.html#stop/5163,,
6029,,"Jaunimo st.",,54.66994,25.41217,http://www.stops.lt/vilnius/index.html#stop/5161,,
6030,,"Jaunimo st.",,54.66979,25.41227,http://www.stops.lt/vilnius/index.html#stop/5162,,
7356,,"Karklėnai",,54.67565,25.41443,http://www.stops.lt/vilnius/index.html#stop/5194,,
7357,,"Karklėnai",,54.67586,25.41456,http://www.stops.lt/vilnius/index.html#stop/5195,,
6603,,"Kunigiškių st.",,54.67047,25.09309,http://www.stops.lt/vilnius/index.html#stop/4102,,
4320,,"Kovo 11-osios st.",,54.67498,25.08719,http://www.stops.lt/vilnius/index.html#stop/4101,,
9834,,"Salos",,54.66833,25.10068,http://www.stops.lt/vilnius/index.html#stop/4104,,
8944,,"Šviesos st.",,54.66953,25.09644,http://www.stops.lt/vilnius/index.html#stop/4103,,
9614,,"Grigiškių žiedas",,54.67362,25.08231,http://www.stops.lt/vilnius/index.html#stop/4114,,
9484,,"Kranto st.",,54.67349,25.08072,http://www.stops.lt/vilnius/index.html#stop/4112,,
9615,,"Kranto st.",,54.67329,25.08022,http://www.stops.lt/vilnius/index.html#stop/4115,,
9485,,"Žalioji st.",,54.66999,25.07720,http://www.stops.lt/vilnius/index.html#stop/4113,,
9616,,"Žalioji st.",,54.66959,25.07668,http://www.stops.lt/vilnius/index.html#stop/4116,,
9082,,"Grigiškės",,54.67284,25.09011,http://www.stops.lt/vilnius/index.html#stop/4105,,
9109,,"Neravų st.",,54.66835,25.11215,http://www.stops.lt/vilnius/index.html#stop/4106,,
9471,,"1-ieji Juodšiliai",,54.58541,25.24924,http://www.stops.lt/vilnius/index.html#stop/2723,,
9472,,"1-ieji Juodšiliai",,54.58528,25.24828,http://www.stops.lt/vilnius/index.html#stop/2724,,
9571,,"2-ieji Juodšiliai",,54.58512,25.26395,http://www.stops.lt/vilnius/index.html#stop/2728,,
9572,,"2-ieji Juodšiliai",,54.58496,25.26334,http://www.stops.lt/vilnius/index.html#stop/2729,,
5063,,"Justiniškės",,54.71754,25.22209,http://www.stops.lt/vilnius/index.html#stop/3209,,
6580,,"Justiniškės",,54.71652,25.22085,http://www.stops.lt/vilnius/index.html#stop/3211,,
6581,,"Lūžiai",,54.71080,25.21661,http://www.stops.lt/vilnius/index.html#stop/3214,,
6582,,"Lūžiai",,54.71164,25.21772,http://www.stops.lt/vilnius/index.html#stop/1804,,
542,,"Pumpėnų st.",,54.72239,25.22192,http://www.stops.lt/vilnius/index.html#stop/3201,,
5060,,"Taikos st.",,54.72060,25.22263,http://www.stops.lt/vilnius/index.html#stop/3204,,
5140,,"Taikos st.",,54.72159,25.22279,http://www.stops.lt/vilnius/index.html#stop/3202,,
7001,,"Justiniškės",,54.71676,25.22203,http://www.stops.lt/vilnius/index.html#stop/1801,,
5137,,"Rygos st.",,54.71647,25.22962,http://www.stops.lt/vilnius/index.html#stop/3218,,
6995,,"Atžalyno st.",,54.71826,25.21413,http://www.stops.lt/vilnius/index.html#stop/3208,,
6996,,"Atžalyno st.",,54.71929,25.21426,http://www.stops.lt/vilnius/index.html#stop/3207,,
6990,,"Justiniškių žiedas",,54.70933,25.21334,http://www.stops.lt/vilnius/index.html#stop/3216,,
6998,,"Mykolo Biržiškos gimnazija",,54.72133,25.21843,http://www.stops.lt/vilnius/index.html#stop/3206,,
6999,,"Mykolo Biržiškos gimnazija",,54.72153,25.21716,http://www.stops.lt/vilnius/index.html#stop/3205,,
6992,,"Šiaurinė st.",,54.71497,25.21486,http://www.stops.lt/vilnius/index.html#stop/3213,,
6993,,"Šiaurinė st.",,54.71554,25.21511,http://www.stops.lt/vilnius/index.html#stop/3212,,
7005,,"Taikos st.",,54.72126,25.22162,http://www.stops.lt/vilnius/index.html#stop/3203,,
9593,,"Kalnėnai",,54.65480,25.33203,http://www.stops.lt/vilnius/index.html#stop/4016,,
9659,,"Kalnėnai",,54.65502,25.33219,http://www.stops.lt/vilnius/index.html#stop/4020,,
5651,,"Karoliniškės",,54.69244,25.21631,http://www.stops.lt/vilnius/index.html#stop/1707,,
6649,,"Karoliniškės",,54.69279,25.21733,http://www.stops.lt/vilnius/index.html#stop/1706,,
5646,,"Laisvės prospektas",,54.69635,25.21992,http://www.stops.lt/vilnius/index.html#stop/1703,,
6643,,"Laisvės prospektas",,54.69752,25.22123,http://www.stops.lt/vilnius/index.html#stop/1702,,
1004,,"Televizijos bokštas",,54.69092,25.21486,http://www.stops.lt/vilnius/index.html#stop/1708,,
5656,,"Televizijos bokštas",,54.68996,25.21260,http://www.stops.lt/vilnius/index.html#stop/1709,,
1071,,"Vaivorykštės st.",,54.68519,25.20766,http://www.stops.lt/vilnius/index.html#stop/1714,,
5668,,"Vaivorykštės st.",,54.68430,25.20695,http://www.stops.lt/vilnius/index.html#stop/1715,,
351,,"Atminties st.",,54.68715,25.20713,http://www.stops.lt/vilnius/index.html#stop/1712,,
5920,,"Atminties st.",,54.68674,25.20650,http://www.stops.lt/vilnius/index.html#stop/1713,,
596,,"Karoliniškių poliklinika",,54.69344,25.21524,http://www.stops.lt/vilnius/index.html#stop/1705,,
5915,,"Karoliniškių poliklinika",,54.69283,25.21416,http://www.stops.lt/vilnius/index.html#stop/1704,,
5923,,"Pasakų parkas",,54.68477,25.20559,http://www.stops.lt/vilnius/index.html#stop/1717,,
5924,,"Pasakų parkas",,54.68461,25.20607,http://www.stops.lt/vilnius/index.html#stop/1716,,
5919,,"Ugniagesių st.",,54.68951,25.20904,http://www.stops.lt/vilnius/index.html#stop/1711,,
6400,,"Ugniagesių st.",,54.69021,25.21068,http://www.stops.lt/vilnius/index.html#stop/1710,,
10130,,"Loretos Asanavičiūtės st.",,54.68318,25.19942,http://www.stops.lt/vilnius/index.html#stop/1661,,
10131,,"Loretos Asanavičiūtės st.",,54.68332,25.19908,http://www.stops.lt/vilnius/index.html#stop/1662,,
5971,,"Kineliai",,54.59737,25.31626,http://www.stops.lt/vilnius/index.html#stop/4326,,
5972,,"Kineliai",,54.59755,25.31573,http://www.stops.lt/vilnius/index.html#stop/4325,,
410,,"Dariaus ir Girėno st.",,54.64755,25.27318,http://www.stops.lt/vilnius/index.html#stop/2608,,
5182,,"Dariaus ir Girėno st.",,54.64719,25.27313,http://www.stops.lt/vilnius/index.html#stop/2607,,
5180,,"Eišiškių plentas",,54.65129,25.27177,http://www.stops.lt/vilnius/index.html#stop/2603,,
5181,,"Eišiškių plentas",,54.65148,25.27186,http://www.stops.lt/vilnius/index.html#stop/2604,,
5184,,"Felikso Vaitkaus st.",,54.64352,25.27401,http://www.stops.lt/vilnius/index.html#stop/2612,,
588,,"Kirtimai",,54.63684,25.27461,http://www.stops.lt/vilnius/index.html#stop/2618,,
5193,,"Kirtimai",,54.63748,25.27466,http://www.stops.lt/vilnius/index.html#stop/2619,,
690,,"Kirtimų geležinkelio stotis",,54.62953,25.27220,http://www.stops.lt/vilnius/index.html#stop/2622,,
493,,"Tiekimo st.",,54.63206,25.27312,http://www.stops.lt/vilnius/index.html#stop/2620,,
5194,,"Tiekimo st.",,54.63323,25.27323,http://www.stops.lt/vilnius/index.html#stop/2621,,
6961,,"Dilgynė",,54.63435,25.25372,http://www.stops.lt/vilnius/index.html#stop/2628,,
5304,,"Eišiškių plentas",,54.64925,25.26784,http://www.stops.lt/vilnius/index.html#stop/2601,,
5305,,"Eišiškių plentas",,54.64970,25.26853,http://www.stops.lt/vilnius/index.html#stop/2602,,
6947,,"Hidrogeologijos st.",,54.64344,25.26321,http://www.stops.lt/vilnius/index.html#stop/2614,,
6948,,"Hidrogeologijos st.",,54.64295,25.26267,http://www.stops.lt/vilnius/index.html#stop/2615,,
5307,,"Metalo st.",,54.64632,25.26573,http://www.stops.lt/vilnius/index.html#stop/2606,,
6949,,"Verslo st.",,54.63898,25.25882,http://www.stops.lt/vilnius/index.html#stop/2625,,
6950,,"Verslo st.",,54.63933,25.25934,http://www.stops.lt/vilnius/index.html#stop/2624,,
5316,,"Meistrų st.",,54.63085,25.25945,http://www.stops.lt/vilnius/index.html#stop/2639,,
5317,,"Čigonų st.",,54.63078,25.26474,http://www.stops.lt/vilnius/index.html#stop/2640,,
491,,"Geologų st.",,54.63974,25.26680,http://www.stops.lt/vilnius/index.html#stop/2616,,
5313,,"Geologų st.",,54.63868,25.26684,http://www.stops.lt/vilnius/index.html#stop/2617,,
5315,,"Katilinė",,54.63486,25.26604,http://www.stops.lt/vilnius/index.html#stop/2623,,
5310,,"Metalo st.",,54.64556,25.26567,http://www.stops.lt/vilnius/index.html#stop/2609,,
5319,,"Elektros st.",,54.63389,25.25658,http://www.stops.lt/vilnius/index.html#stop/2627,,
5188,,"Oro uostas",,54.64289,25.27951,http://www.stops.lt/vilnius/index.html#stop/2613,,
4290,,"Paštas",,54.63581,25.27655,http://www.stops.lt/vilnius/index.html#stop/2641,,
7817,,"Rodūnios kelias",,54.64191,25.27778,http://www.stops.lt/vilnius/index.html#stop/2644,,
7820,,"Rodūnios kelias",,54.64168,25.27789,http://www.stops.lt/vilnius/index.html#stop/2645,,
8240,,"Felikso Vaitkaus st.",,54.64406,25.27373,http://www.stops.lt/vilnius/index.html#stop/2611,,
8347,,"Dilgynė",,54.63490,25.25412,http://www.stops.lt/vilnius/index.html#stop/2630,,
8339,,"Metalo st.",,54.64581,25.26501,http://www.stops.lt/vilnius/index.html#stop/2605,,
9729,,"Meistrų st.",,54.63073,25.25939,http://www.stops.lt/vilnius/index.html#stop/2651,,
9731,,"Čigonų st.",,54.63079,25.26495,http://www.stops.lt/vilnius/index.html#stop/2653,,
9730,,"Katilinė",,54.63488,25.26621,http://www.stops.lt/vilnius/index.html#stop/2652,,
9728,,"Elektros st.",,54.63355,25.25626,http://www.stops.lt/vilnius/index.html#stop/2650,,
9276,,"Paštas",,54.63595,25.27704,http://www.stops.lt/vilnius/index.html#stop/2649,,
9226,,"Rodūnios sodų st.",,54.63249,25.27778,http://www.stops.lt/vilnius/index.html#stop/2648,,
7874,,"Kuprioniškės",,54.64104,25.33163,http://www.stops.lt/vilnius/index.html#stop/5178,,
616,,"Kinologijos centras",,54.64878,25.32131,http://www.stops.lt/vilnius/index.html#stop/4002,,
9682,,"Vyturių st.",,54.63744,25.32758,http://www.stops.lt/vilnius/index.html#stop/4355,,
329,,"Akacijų st.",,54.67818,25.20273,http://www.stops.lt/vilnius/index.html#stop/1612,,
5672,,"Akacijų st.",,54.67792,25.20181,http://www.stops.lt/vilnius/index.html#stop/1613,,
5693,,"Architektų st.",,54.67343,25.21451,http://www.stops.lt/vilnius/index.html#stop/1619,,
5694,,"Architektų st.",,54.67313,25.21339,http://www.stops.lt/vilnius/index.html#stop/1643,,
5701,,"Ąžuolo st.",,54.67994,25.21765,http://www.stops.lt/vilnius/index.html#stop/1606,,
5702,,"Ąžuolo st.",,54.67934,25.21701,http://www.stops.lt/vilnius/index.html#stop/1605,,
7350,,"Erfurto st.",,54.67448,25.20080,http://www.stops.lt/vilnius/index.html#stop/5193,,
4395,,"Paukščių takas",,54.67969,25.20717,http://www.stops.lt/vilnius/index.html#stop/1646,,
5697,,"Riešutų st.",,54.67645,25.21607,http://www.stops.lt/vilnius/index.html#stop/1620,,
5698,,"Riešutų st.",,54.67600,25.21556,http://www.stops.lt/vilnius/index.html#stop/1645,,
5703,,"Ryto st.",,54.68215,25.21371,http://www.stops.lt/vilnius/index.html#stop/1607,,
5704,,"Ryto st.",,54.68268,25.21309,http://www.stops.lt/vilnius/index.html#stop/1608,,
5691,,"Šalnos st.",,54.67281,25.20703,http://www.stops.lt/vilnius/index.html#stop/1618,,
5692,,"Šalnos st.",,54.67307,25.20607,http://www.stops.lt/vilnius/index.html#stop/1642,,
639,,"Bukčiai",,54.65501,25.19563,http://www.stops.lt/vilnius/index.html#stop/1634,,
6390,,"Neužmirštuolių st.",,54.65851,25.20373,http://www.stops.lt/vilnius/index.html#stop/1633,,
6391,,"Neužmirštuolių st.",,54.65772,25.20194,http://www.stops.lt/vilnius/index.html#stop/1632,,
6388,,"Ratilių st.",,54.66448,25.21395,http://www.stops.lt/vilnius/index.html#stop/1648,,
6389,,"Ratilių st.",,54.66500,25.21427,http://www.stops.lt/vilnius/index.html#stop/1647,,
7722,,"Užutekio st.",,54.65909,25.20703,http://www.stops.lt/vilnius/index.html#stop/1649,,
7723,,"Užutekio st.",,54.65911,25.20771,http://www.stops.lt/vilnius/index.html#stop/1650,,
437,,"Erfurto st.",,54.67356,25.20102,http://www.stops.lt/vilnius/index.html#stop/1617,,
7341,,"Erfurto st.",,54.67357,25.20062,http://www.stops.lt/vilnius/index.html#stop/5189,,
6317,,"Lazdynai",,54.67757,25.21236,http://www.stops.lt/vilnius/index.html#stop/1640,,
6318,,"Lazdynai",,54.67778,25.21233,http://www.stops.lt/vilnius/index.html#stop/1611,,
783,,"Lazdynų seniūnija",,54.67520,25.20412,http://www.stops.lt/vilnius/index.html#stop/1615,,
6320,,"Lazdynų seniūnija",,54.67473,25.20258,http://www.stops.lt/vilnius/index.html#stop/1616,,
756,,"Oslo st.",,54.67009,25.19775,http://www.stops.lt/vilnius/index.html#stop/1622,,
3589,,"Žėručio st.",,54.67661,25.20840,http://www.stops.lt/vilnius/index.html#stop/1641,,
6319,,"Žėručio st.",,54.67642,25.20696,http://www.stops.lt/vilnius/index.html#stop/1614,,
6337,,"Eigulių st.",,54.66900,25.23547,http://www.stops.lt/vilnius/index.html#stop/2401,,
6338,,"Eigulių st.",,54.66935,25.23571,http://www.stops.lt/vilnius/index.html#stop/0608,,
6461,,"Lazdynai",,54.67891,25.21331,http://www.stops.lt/vilnius/index.html#stop/1609,,
6648,,"Lazdynai",,54.67926,25.21329,http://www.stops.lt/vilnius/index.html#stop/1610,,
720,,"Miškiniai",,54.67119,25.22725,http://www.stops.lt/vilnius/index.html#stop/1601,,
721,,"Miškiniai",,54.67093,25.22641,http://www.stops.lt/vilnius/index.html#stop/1602,,
790,,"Parodų rūmai",,54.67561,25.22250,http://www.stops.lt/vilnius/index.html#stop/1603,,
6333,,"Parodų rūmai",,54.67577,25.22186,http://www.stops.lt/vilnius/index.html#stop/1604,,
6460,,"Paukščių takas",,54.68065,25.20884,http://www.stops.lt/vilnius/index.html#stop/1636,,
6462,,"Paukščių takas",,54.68085,25.20922,http://www.stops.lt/vilnius/index.html#stop/1635,,
7560,,"Oslo st.",,54.66980,25.19806,http://www.stops.lt/vilnius/index.html#stop/1623,,
3560,,"Žaros st.",,54.66649,25.19576,http://www.stops.lt/vilnius/index.html#stop/1638,,
7171,,"Žaros st.",,54.66672,25.19581,http://www.stops.lt/vilnius/index.html#stop/1637,,
6350,,"Lazdynų ligoninė",,54.67031,25.20903,http://www.stops.lt/vilnius/index.html#stop/1626,,
6351,,"Lazdynų ligoninė",,54.67050,25.20809,http://www.stops.lt/vilnius/index.html#stop/1624,,
6352,,"Šiltnamių st.",,54.67091,25.21479,http://www.stops.lt/vilnius/index.html#stop/1629,,
6353,,"Šiltnamių st.",,54.67107,25.21428,http://www.stops.lt/vilnius/index.html#stop/1628,,
6379,,"Jonažolių st.",,54.66985,25.20846,http://www.stops.lt/vilnius/index.html#stop/1627,,
6381,,"Jonažolių st.",,54.66993,25.20743,http://www.stops.lt/vilnius/index.html#stop/1625,,
4945,,"Lazdynų ligoninė",,54.66907,25.20662,http://www.stops.lt/vilnius/index.html#stop/5158,,
6401,,"Oslo st.",,54.67012,25.19933,http://www.stops.lt/vilnius/index.html#stop/1653,,
6387,,"Pakalnučių st.",,54.66911,25.21298,http://www.stops.lt/vilnius/index.html#stop/1630,,
8328,,"Bijūnų st.",,54.66721,25.21596,http://www.stops.lt/vilnius/index.html#stop/1651,,
9635,,"Gudeliai",,54.67579,25.19289,http://www.stops.lt/vilnius/index.html#stop/1655,,
9636,,"Gudeliai",,54.67558,25.19308,http://www.stops.lt/vilnius/index.html#stop/1656,,
8702,,"Lazdynėliai",,54.66257,25.19236,http://www.stops.lt/vilnius/index.html#stop/1652,,
9466,,"Monikos Mironaitės st.",,54.68060,25.18942,http://www.stops.lt/vilnius/index.html#stop/1654,,
9961,,"Monikos Mironaitės st.",,54.68063,25.18915,http://www.stops.lt/vilnius/index.html#stop/1657,,
9966,,"Bijūnų st.",,54.66764,25.21652,http://www.stops.lt/vilnius/index.html#stop/1660,,
9965,,"Šiltnamių žiedas",,54.66708,25.22145,http://www.stops.lt/vilnius/index.html#stop/1659,,
10264,,"Ungurių st.",,54.65357,25.20820,http://www.stops.lt/vilnius/index.html#stop/1663,,
9685,,"Kilimų fabrikas",,54.65324,25.04682,http://www.stops.lt/vilnius/index.html#stop/3000,,
9690,,"Kilimų fabrikas",,54.65495,25.04564,http://www.stops.lt/vilnius/index.html#stop/3004,,
9398,,"Lentvaris",,54.64535,25.05303,http://www.stops.lt/vilnius/index.html#stop/2999,,
9692,,"1-asis Lentvaris",,54.64434,25.06379,http://www.stops.lt/vilnius/index.html#stop/3907,,
9618,,"Lentvaris",,54.64505,25.05363,http://www.stops.lt/vilnius/index.html#stop/3003,,
9686,,"Naujasis Lentvaris",,54.65800,25.05965,http://www.stops.lt/vilnius/index.html#stop/3001,,
9688,,"Naujasis Lentvaris",,54.65791,25.05903,http://www.stops.lt/vilnius/index.html#stop/3002,,
9689,,"Vandenų st.",,54.65780,25.04836,http://www.stops.lt/vilnius/index.html#stop/3005,,
5966,,"Basiukai",,54.61206,25.31046,http://www.stops.lt/vilnius/index.html#stop/4011,,
5967,,"Basiukai",,54.61052,25.31098,http://www.stops.lt/vilnius/index.html#stop/4012,,
5968,,"Katiliškės",,54.60443,25.31308,http://www.stops.lt/vilnius/index.html#stop/4014,,
5969,,"Katiliškės",,54.60612,25.31308,http://www.stops.lt/vilnius/index.html#stop/4013,,
5955,,"Kelininkų st.",,54.64917,25.30266,http://www.stops.lt/vilnius/index.html#stop/2633,,
5996,,"Kelininkų st.",,54.65048,25.30308,http://www.stops.lt/vilnius/index.html#stop/4003,,
646,,"Lydos st.",,54.62535,25.30561,http://www.stops.lt/vilnius/index.html#stop/4015,,
5960,,"Lydos st.",,54.62522,25.30547,http://www.stops.lt/vilnius/index.html#stop/2636,,
5958,,"Miško parkas",,54.63671,25.30307,http://www.stops.lt/vilnius/index.html#stop/2635,,
5995,,"Miško parkas",,54.63609,25.30331,http://www.stops.lt/vilnius/index.html#stop/4005,,
5956,,"Šalčininkų kryptis",,54.64398,25.30273,http://www.stops.lt/vilnius/index.html#stop/2634,,
5957,,"Šalčininkų kryptis",,54.64484,25.30285,http://www.stops.lt/vilnius/index.html#stop/4004,,
5964,,"Svirno st.",,54.61725,25.30824,http://www.stops.lt/vilnius/index.html#stop/4010,,
5965,,"Svirno st.",,54.61865,25.30796,http://www.stops.lt/vilnius/index.html#stop/4009,,
5953,,"Žirnių st.",,54.65307,25.30270,http://www.stops.lt/vilnius/index.html#stop/2632,,
6118,,"Žirnių st.",,54.65392,25.30396,http://www.stops.lt/vilnius/index.html#stop/4001,,
9568,,"Miškinių sodai",,54.58885,25.23720,http://www.stops.lt/vilnius/index.html#stop/2726,,
9570,,"Miškinių sodai",,54.58871,25.23740,http://www.stops.lt/vilnius/index.html#stop/2727,,
939,,"Stotis",,54.67110,25.28443,http://www.stops.lt/vilnius/index.html#stop/0530,,
3590,,"Stotis",,54.67106,25.28399,http://www.stops.lt/vilnius/index.html#stop/0530d,,
3617,,"Stotis",,54.67085,25.28336,http://www.stops.lt/vilnius/index.html#stop/0530c,,
4266,,"Stotis",,54.67108,25.28420,http://www.stops.lt/vilnius/index.html#stop/0530f,,
5156,,"Stotis",,54.67025,25.28349,http://www.stops.lt/vilnius/index.html#stop/0530n,,
5300,,"Stotis",,54.67071,25.28490,http://www.stops.lt/vilnius/index.html#stop/0530a,,
5301,,"Stotis",,54.67112,25.28467,http://www.stops.lt/vilnius/index.html#stop/0530b,,
7914,,"Stotis",,54.67077,25.28326,http://www.stops.lt/vilnius/index.html#stop/0530x,,
7576,,"Stotis",,54.66824,25.27636,http://www.stops.lt/vilnius/index.html#stop/0548,,
5524,,"Algirdo st.",,54.68197,25.26820,http://www.stops.lt/vilnius/index.html#stop/0501,,
6840,,"Algirdo st.",,54.68145,25.26640,http://www.stops.lt/vilnius/index.html#stop/0502,,
5166,,"„Sparta“",,54.67191,25.27022,http://www.stops.lt/vilnius/index.html#stop/0521,,
5167,,"„Sparta“",,54.67180,25.26847,http://www.stops.lt/vilnius/index.html#stop/0519,,
5160,,"Aguonų st.",,54.67263,25.27852,http://www.stops.lt/vilnius/index.html#stop/0415,,
6650,,"Aguonų st.",,54.67284,25.27736,http://www.stops.lt/vilnius/index.html#stop/0414,,
6362,,"Naujamiestis",,54.67043,25.26121,http://www.stops.lt/vilnius/index.html#stop/0517,,
6363,,"Naujamiestis",,54.67049,25.26260,http://www.stops.lt/vilnius/index.html#stop/0518,,
5655,,"Naugarduko st.",,54.67051,25.26018,http://www.stops.lt/vilnius/index.html#stop/0516,,
5645,,"Švitrigailos st.",,54.67424,25.26792,http://www.stops.lt/vilnius/index.html#stop/0512,,
5649,,"Vytenio st.",,54.67185,25.26233,http://www.stops.lt/vilnius/index.html#stop/0514,,
6852,,"Vytenio st.",,54.67342,25.26607,http://www.stops.lt/vilnius/index.html#stop/0513,,
5549,,"„Lelija“",,54.66815,25.26369,http://www.stops.lt/vilnius/index.html#stop/0523,,
5552,,"Smolensko st.",,54.66742,25.26005,http://www.stops.lt/vilnius/index.html#stop/0525,,
5553,,"Smolensko st.",,54.66714,25.25911,http://www.stops.lt/vilnius/index.html#stop/0526,,
5579,,"Simono Konarskio st.",,54.67986,25.25964,http://www.stops.lt/vilnius/index.html#stop/0507,,
5580,,"Simono Konarskio st.",,54.67947,25.25932,http://www.stops.lt/vilnius/index.html#stop/0506,,
6343,,"Vingis",,54.67719,25.25438,http://www.stops.lt/vilnius/index.html#stop/0509,,
6842,,"Vingis",,54.67754,25.25555,http://www.stops.lt/vilnius/index.html#stop/0508,,
3616,,"Stotis",,54.67115,25.28328,http://www.stops.lt/vilnius/index.html#stop/0530e,,
4267,,"Stotis",,54.67147,25.28327,http://www.stops.lt/vilnius/index.html#stop/0530k,,
7573,,"Stotis",,54.67145,25.28297,http://www.stops.lt/vilnius/index.html#stop/0546,,
5168,,"„Sparta“",,54.67262,25.26932,http://www.stops.lt/vilnius/index.html#stop/0520,,
7435,,"„Sparta“",,54.67241,25.26938,http://www.stops.lt/vilnius/index.html#stop/0520a,,
7851,,"„Sparta“",,54.67111,25.26955,http://www.stops.lt/vilnius/index.html#stop/0522a,,
5266,,"Mikalojaus Konstantino Čiurlionio st.",,54.68082,25.26548,http://www.stops.lt/vilnius/index.html#stop/0504,,
5272,,"Taraso Ševčenkos st.",,54.67694,25.26749,http://www.stops.lt/vilnius/index.html#stop/0511,,
6853,,"Taraso Ševčenkos st.",,54.67869,25.26718,http://www.stops.lt/vilnius/index.html#stop/0510,,
683,,"Mikalojaus Konstantino Čiurlionio st.",,54.68160,25.26471,http://www.stops.lt/vilnius/index.html#stop/0505,,
5267,,"Mikalojaus Konstantino Čiurlionio st.",,54.68203,25.26526,http://www.stops.lt/vilnius/index.html#stop/0503,,
640,,"„Lelija“",,54.66967,25.26711,http://www.stops.lt/vilnius/index.html#stop/0531,,
6365,,"Statybininkų st.",,54.67274,25.25565,http://www.stops.lt/vilnius/index.html#stop/0515,,
8262,,"Stotis",,54.67066,25.28313,http://www.stops.lt/vilnius/index.html#stop/0530g,,
8263,,"Stotis",,54.67053,25.28296,http://www.stops.lt/vilnius/index.html#stop/0530m,,
8264,,"Stotis",,54.67115,25.28513,http://www.stops.lt/vilnius/index.html#stop/0530p,,
8309,,"Burbiškės",,54.66674,25.25287,http://www.stops.lt/vilnius/index.html#stop/0527,,
9642,,"Migracijos valdyba",,54.66791,25.25526,http://www.stops.lt/vilnius/index.html#stop/0536,,
9701,,"Migracijos valdyba",,54.66995,25.25839,http://www.stops.lt/vilnius/index.html#stop/0535,,
5175,,"Naujininkai",,54.66084,25.27320,http://www.stops.lt/vilnius/index.html#stop/1501,,
5200,,"Naujininkai",,54.66275,25.27418,http://www.stops.lt/vilnius/index.html#stop/1502,,
7414,,"Naujininkai",,54.66238,25.27402,http://www.stops.lt/vilnius/index.html#stop/1517,,
5173,,"Prūsų st.",,54.66522,25.27281,http://www.stops.lt/vilnius/index.html#stop/1503,,
6854,,"Prūsų st.",,54.66505,25.27316,http://www.stops.lt/vilnius/index.html#stop/1504,,
6012,,"Dzūkų st.",,54.66528,25.27651,http://www.stops.lt/vilnius/index.html#stop/1505,,
6013,,"Dzūkų st.",,54.66582,25.27595,http://www.stops.lt/vilnius/index.html#stop/1506,,
6017,,"Merkinės st.",,54.66417,25.28719,http://www.stops.lt/vilnius/index.html#stop/1510,,
6018,,"Merkinės st.",,54.66421,25.28622,http://www.stops.lt/vilnius/index.html#stop/1511,,
6014,,"Rudaminos st.",,54.66428,25.28024,http://www.stops.lt/vilnius/index.html#stop/1507,,
6015,,"Rudaminos st.",,54.66463,25.27975,http://www.stops.lt/vilnius/index.html#stop/1508,,
6023,,"Karaimų kapinės",,54.65581,25.29452,http://www.stops.lt/vilnius/index.html#stop/1516,,
6024,,"Karaimų kapinės",,54.65511,25.29743,http://www.stops.lt/vilnius/index.html#stop/2631,,
6025,,"Tyzenhauzų st.",,54.65593,25.29246,http://www.stops.lt/vilnius/index.html#stop/1515,,
6022,,"Žirnių st.",,54.65458,25.30182,http://www.stops.lt/vilnius/index.html#stop/1513,,
9738,,"Vikingų st.",,54.65065,25.28225,http://www.stops.lt/vilnius/index.html#stop/1520,,
9750,,"Vikingų st.",,54.65104,25.28251,http://www.stops.lt/vilnius/index.html#stop/1521,,
9754,,"Tyzenhauzų st.",,54.65629,25.29077,http://www.stops.lt/vilnius/index.html#stop/1522,,
5417,,"Alberto Kojelavičiaus st.",,54.69516,25.39570,http://www.stops.lt/vilnius/index.html#stop/2322,,
7586,,"Alberto Kojelavičiaus st.",,54.69505,25.39601,http://www.stops.lt/vilnius/index.html#stop/2376,,
6065,,"Bičių st.",,54.69735,25.42837,http://www.stops.lt/vilnius/index.html#stop/2367,,
6066,,"Bičių st.",,54.69757,25.42918,http://www.stops.lt/vilnius/index.html#stop/2366,,
6059,,"Gandrų st.",,54.69516,25.41467,http://www.stops.lt/vilnius/index.html#stop/2361,,
6060,,"Gandrų st.",,54.69521,25.41451,http://www.stops.lt/vilnius/index.html#stop/2360,,
5383,,"Girininkija",,54.69447,25.36403,http://www.stops.lt/vilnius/index.html#stop/2308,,
5384,,"Girininkija",,54.69456,25.36476,http://www.stops.lt/vilnius/index.html#stop/2309,,
6056,,"Ievų st.",,54.69433,25.40838,http://www.stops.lt/vilnius/index.html#stop/2344,,
6057,,"Ievų st.",,54.69430,25.40698,http://www.stops.lt/vilnius/index.html#stop/2343,,
6054,,"Jankos Kupalos st.",,54.69432,25.40168,http://www.stops.lt/vilnius/index.html#stop/2338,,
6055,,"Jankos Kupalos st.",,54.69445,25.40140,http://www.stops.lt/vilnius/index.html#stop/2337,,
5385,,"Kučkuriškės",,54.69551,25.36901,http://www.stops.lt/vilnius/index.html#stop/2311,,
5387,,"Kučkuriškės",,54.69581,25.36955,http://www.stops.lt/vilnius/index.html#stop/2310,,
6062,,"Rugiagėlių st.",,54.69630,25.42200,http://www.stops.lt/vilnius/index.html#stop/2365,,
6064,,"Rugiagėlių st.",,54.69608,25.42021,http://www.stops.lt/vilnius/index.html#stop/2364,,
5390,,"Širšių st.",,54.69566,25.38774,http://www.stops.lt/vilnius/index.html#stop/2320,,
5391,,"Širšių st.",,54.69561,25.38930,http://www.stops.lt/vilnius/index.html#stop/2321,,
5388,,"Užtvankos st.",,54.69670,25.38105,http://www.stops.lt/vilnius/index.html#stop/2318,,
5389,,"Užtvankos st.",,54.69650,25.38113,http://www.stops.lt/vilnius/index.html#stop/2319,,
5382,,"Viadukas",,54.69397,25.34920,http://www.stops.lt/vilnius/index.html#stop/2306,,
342,,"Arimų st.",,54.70248,25.43145,http://www.stops.lt/vilnius/index.html#stop/2375,,
6068,,"Užkiemio st.",,54.69880,25.43292,http://www.stops.lt/vilnius/index.html#stop/2373,,
6069,,"Užkiemio st.",,54.69905,25.43291,http://www.stops.lt/vilnius/index.html#stop/2374,,
5396,,"Dūmų st.",,54.69318,25.40137,http://www.stops.lt/vilnius/index.html#stop/2340,,
5415,,"Dūmų st.",,54.69318,25.40036,http://www.stops.lt/vilnius/index.html#stop/2339,,
6034,,"Grigaičiai",,54.68156,25.41215,http://www.stops.lt/vilnius/index.html#stop/2350,,
6195,,"Galgiai",,54.71943,25.41157,http://www.stops.lt/vilnius/index.html#stop/4603,,
548,,"Kalno st.",,54.70476,25.39286,http://www.stops.lt/vilnius/index.html#stop/2330,,
6221,,"Kalno st.",,54.70465,25.39315,http://www.stops.lt/vilnius/index.html#stop/2377,,
6051,,"Linksmoji st.",,54.69518,25.43604,http://www.stops.lt/vilnius/index.html#stop/2371,,
6052,,"Linksmoji st.",,54.69508,25.43593,http://www.stops.lt/vilnius/index.html#stop/2370,,
6047,,"Naujosios Vilnios žiedas",,54.68593,25.42996,http://www.stops.lt/vilnius/index.html#stop/2357,,
6048,,"Rytų st.",,54.69033,25.43371,http://www.stops.lt/vilnius/index.html#stop/2359,,
6049,,"Rytų st.",,54.68965,25.43285,http://www.stops.lt/vilnius/index.html#stop/2358,,
7588,,"Mildos st.",,54.69302,25.34210,http://www.stops.lt/vilnius/index.html#stop/2301,,
6040,,"Genių st.",,54.68798,25.41324,http://www.stops.lt/vilnius/index.html#stop/2349,,
6041,,"Genių st.",,54.68827,25.41255,http://www.stops.lt/vilnius/index.html#stop/2348,,
6073,,"Naujosios Vilnios žiedas",,54.68558,25.42811,http://www.stops.lt/vilnius/index.html#stop/2356,,
7444,,"Naujosios Vilnios žiedas",,54.68543,25.42889,http://www.stops.lt/vilnius/index.html#stop/2378,,
6044,,"Parko st.",,54.68550,25.42610,http://www.stops.lt/vilnius/index.html#stop/2355,,
6045,,"Parko st.",,54.68561,25.42449,http://www.stops.lt/vilnius/index.html#stop/2354,,
6042,,"Respublikinė psichiatrijos ligoninė",,54.68563,25.41933,http://www.stops.lt/vilnius/index.html#stop/2353,,
6043,,"Respublikinė psichiatrijos ligoninė",,54.68594,25.41868,http://www.stops.lt/vilnius/index.html#stop/2352,,
6035,,"Grigaičiai",,54.68198,25.41263,http://www.stops.lt/vilnius/index.html#stop/2351,,
6225,,"Tremtinių st.",,54.69260,25.41063,http://www.stops.lt/vilnius/index.html#stop/2346,,
1129,,"Naujoji Vilnia",,54.69516,25.44032,http://www.stops.lt/vilnius/index.html#stop/2372,,
5406,,"Neries st.",,54.69563,25.42869,http://www.stops.lt/vilnius/index.html#stop/2369,,
5408,,"Neries st.",,54.69572,25.42939,http://www.stops.lt/vilnius/index.html#stop/2368,,
5403,,"Pramonės st.",,54.69435,25.41807,http://www.stops.lt/vilnius/index.html#stop/2363,,
5411,,"Pramonės st.",,54.69448,25.41865,http://www.stops.lt/vilnius/index.html#stop/2362,,
5399,,"Tremtinių st.",,54.69310,25.41141,http://www.stops.lt/vilnius/index.html#stop/2347,,
6888,,"Rokantiškės",,54.70411,25.36406,http://www.stops.lt/vilnius/index.html#stop/1019,,
5394,,"Alberto Kojelavičiaus st.",,54.69465,25.39674,http://www.stops.lt/vilnius/index.html#stop/2323,,
6230,,"Alberto Kojelavičiaus st.",,54.69631,25.39844,http://www.stops.lt/vilnius/index.html#stop/2324,,
6211,,"Palydovo st.",,54.70100,25.40844,http://www.stops.lt/vilnius/index.html#stop/2331,,
6212,,"Palydovo st.",,54.70112,25.40998,http://www.stops.lt/vilnius/index.html#stop/2332,,
6207,,"Pupojų st.",,54.70272,25.41411,http://www.stops.lt/vilnius/index.html#stop/2334,,
6208,,"Pupojų st.",,54.70183,25.41310,http://www.stops.lt/vilnius/index.html#stop/2333,,
6203,,"Šiaurės st.",,54.70929,25.41681,http://www.stops.lt/vilnius/index.html#stop/2336,,
6204,,"Šiaurės st.",,54.70863,25.41716,http://www.stops.lt/vilnius/index.html#stop/2335,,
6215,,"Uosių st.",,54.69939,25.40195,http://www.stops.lt/vilnius/index.html#stop/2326,,
6217,,"Uosių st.",,54.69903,25.40122,http://www.stops.lt/vilnius/index.html#stop/2325,,
6199,,"Vakario st.",,54.71376,25.41248,http://www.stops.lt/vilnius/index.html#stop/1020,,
6727,,"Lelijų st.",,54.68949,25.40021,http://www.stops.lt/vilnius/index.html#stop/2342,,
6729,,"Lelijų st.",,54.68973,25.40104,http://www.stops.lt/vilnius/index.html#stop/2341,,
7587,,"Mildos st.",,54.69147,25.34376,http://www.stops.lt/vilnius/index.html#stop/2302,,
6721,,"Pūčkoriai",,54.69112,25.36730,http://www.stops.lt/vilnius/index.html#stop/2315,,
6722,,"Pūčkoriai",,54.69145,25.36641,http://www.stops.lt/vilnius/index.html#stop/2314,,
6719,,"Pūčkorių atodanga",,54.69159,25.36010,http://www.stops.lt/vilnius/index.html#stop/2313,,
6732,,"Pūčkorių atodanga",,54.69190,25.35966,http://www.stops.lt/vilnius/index.html#stop/2312,,
6724,,"Stepono Batoro st.",,54.69312,25.37896,http://www.stops.lt/vilnius/index.html#stop/2317,,
6725,,"Stepono Batoro st.",,54.69317,25.37802,http://www.stops.lt/vilnius/index.html#stop/2316,,
5400,,"Tremtinių st.",,54.69290,25.40981,http://www.stops.lt/vilnius/index.html#stop/2345,,
5381,,"Viadukas",,54.69301,25.34898,http://www.stops.lt/vilnius/index.html#stop/2307,,
6218,,"Paparčių st.",,54.70163,25.39411,http://www.stops.lt/vilnius/index.html#stop/2328,,
6219,,"Paparčių st.",,54.70157,25.39462,http://www.stops.lt/vilnius/index.html#stop/2329,,
6216,,"Uosių st.",,54.69943,25.40141,http://www.stops.lt/vilnius/index.html#stop/2327,,
6887,,"Lyglaukiai",,54.70250,25.35390,http://www.stops.lt/vilnius/index.html#stop/2305,,
6883,,"Šilo st.",,54.70009,25.34933,http://www.stops.lt/vilnius/index.html#stop/2304,,
6881,,"Viršupis",,54.69624,25.34492,http://www.stops.lt/vilnius/index.html#stop/2303,,
8373,,"Naujoji Vilnia",,54.69526,25.43904,http://www.stops.lt/vilnius/index.html#stop/2379,,
8342,,"Verbų st.",,54.69452,25.44460,http://www.stops.lt/vilnius/index.html#stop/2387regio,,
8343,,"Verbų st.",,54.69455,25.44464,http://www.stops.lt/vilnius/index.html#stop/2388regio,,
9606,,"Rokantiškių sodai",,54.70588,25.37581,http://www.stops.lt/vilnius/index.html#stop/2393,,
9604,,"Uosių sodai",,54.70751,25.38723,http://www.stops.lt/vilnius/index.html#stop/2391,,
9605,,"Uosių sodai",,54.70760,25.38705,http://www.stops.lt/vilnius/index.html#stop/2392,,
9607,,"Rokantiškių sodai",,54.70593,25.37536,http://www.stops.lt/vilnius/index.html#stop/2394,,
6133,,"Sodžiaus st.",,54.61366,25.38883,http://www.stops.lt/vilnius/index.html#stop/4310,,
6134,,"Sodžiaus st.",,54.61390,25.38901,http://www.stops.lt/vilnius/index.html#stop/4309,,
6130,,"Stankutiškės",,54.62017,25.38996,http://www.stops.lt/vilnius/index.html#stop/4307,,
6131,,"Stankutiškės",,54.62074,25.39016,http://www.stops.lt/vilnius/index.html#stop/4308,,
6126,,"Daržininkai",,54.63727,25.36856,http://www.stops.lt/vilnius/index.html#stop/4304,,
6127,,"Daržininkai",,54.63803,25.36670,http://www.stops.lt/vilnius/index.html#stop/4327,,
6120,,"Minsko plentas",,54.64434,25.33872,http://www.stops.lt/vilnius/index.html#stop/4301,,
6124,,"Nemėžis",,54.63997,25.35694,http://www.stops.lt/vilnius/index.html#stop/4303,,
6125,,"Nemėžis",,54.64047,25.35628,http://www.stops.lt/vilnius/index.html#stop/1420,,
6128,,"Posūkis",,54.62644,25.39308,http://www.stops.lt/vilnius/index.html#stop/4306,,
6129,,"Posūkis",,54.62727,25.39227,http://www.stops.lt/vilnius/index.html#stop/4329,,
6122,,"Sodai",,54.64243,25.34666,http://www.stops.lt/vilnius/index.html#stop/4302,,
9680,,"Baltarusių st.",,54.63364,25.34363,http://www.stops.lt/vilnius/index.html#stop/4351,,
9681,,"Sodybų st.",,54.63182,25.32668,http://www.stops.lt/vilnius/index.html#stop/4353,,
9790,,"Šveicarų st.",,54.63509,25.32657,http://www.stops.lt/vilnius/index.html#stop/4358,,
9677,,"Nemėžis",,54.63881,25.35582,http://www.stops.lt/vilnius/index.html#stop/4350,,
9678,,"Vladislavo Sirokomlės st.",,54.63453,25.35393,http://www.stops.lt/vilnius/index.html#stop/4352,,
6978,,"Durpių st.",,54.59582,25.20494,http://www.stops.lt/vilnius/index.html#stop/5139,,
6979,,"Durpių st.",,54.59657,25.20456,http://www.stops.lt/vilnius/index.html#stop/5138,,
4565,,"Pagiriai",,54.57716,25.19829,http://www.stops.lt/vilnius/index.html#stop/5114,,
4612,,"Pirmieji Pagiriai",,54.58635,25.21041,http://www.stops.lt/vilnius/index.html#stop/5133,,
4613,,"Pirmieji Pagiriai",,54.58711,25.21116,http://www.stops.lt/vilnius/index.html#stop/5134,,
4563,,"Žemieji Pagiriai",,54.58150,25.20442,http://www.stops.lt/vilnius/index.html#stop/5112,,
4564,,"Žemieji Pagiriai",,54.58272,25.20609,http://www.stops.lt/vilnius/index.html#stop/5113,,
9468,,"Vokės parkas",,54.59378,25.22004,http://www.stops.lt/vilnius/index.html#stop/2721,,
9567,,"Vokės parkas",,54.59501,25.21903,http://www.stops.lt/vilnius/index.html#stop/2725,,
9479,,"Juliaus Janonio st.",,54.64764,25.11056,http://www.stops.lt/vilnius/index.html#stop/3902,,
9683,,"Juliaus Janonio st.",,54.64778,25.10911,http://www.stops.lt/vilnius/index.html#stop/3903,,
9967,,"Vilijos st.",,54.63484,25.17254,http://www.stops.lt/vilnius/index.html#stop/2951,,
7022,,"Gabijos st.",,54.73128,25.22466,http://www.stops.lt/vilnius/index.html#stop/3307,,
7023,,"Gabijos st.",,54.73143,25.22647,http://www.stops.lt/vilnius/index.html#stop/3308,,
7898,,"Juliaus Juzeliūno st.",,54.73046,25.23516,http://www.stops.lt/vilnius/index.html#stop/3328,,
687,,"Medeinos st.",,54.72871,25.21815,http://www.stops.lt/vilnius/index.html#stop/3303,,
6925,,"Medeinos st.",,54.72967,25.21902,http://www.stops.lt/vilnius/index.html#stop/3304,,
6931,,"Skalvių st.",,54.73471,25.22005,http://www.stops.lt/vilnius/index.html#stop/3306,,
7603,,"Skalvių st.",,54.73455,25.21963,http://www.stops.lt/vilnius/index.html#stop/3305,,
949,,"Sūduvių st.",,54.72563,25.21922,http://www.stops.lt/vilnius/index.html#stop/3301,,
5141,,"Sūduvių st.",,54.72646,25.21906,http://www.stops.lt/vilnius/index.html#stop/3302,,
364,,"Juliaus Juzeliūno st.",,54.73031,25.23644,http://www.stops.lt/vilnius/index.html#stop/3320,,
6766,,"Juliaus Juzeliūno st.",,54.72919,25.23578,http://www.stops.lt/vilnius/index.html#stop/3319,,
6484,,"Pašilaičių žiedas",,54.72773,25.23387,http://www.stops.lt/vilnius/index.html#stop/3324,,
6481,,"Vilniaus rajono poliklinika",,54.72332,25.23400,http://www.stops.lt/vilnius/index.html#stop/3313,,
6482,,"Vilniaus rajono poliklinika",,54.72281,25.23343,http://www.stops.lt/vilnius/index.html#stop/3314,,
6523,,"Žemynos st.",,54.72576,25.23344,http://www.stops.lt/vilnius/index.html#stop/3316,,
6653,,"Žemynos st.",,54.72665,25.23398,http://www.stops.lt/vilnius/index.html#stop/3315,,
7027,,"Pašilaičiai",,54.73141,25.23164,http://www.stops.lt/vilnius/index.html#stop/3312,,
7028,,"Pašilaičiai",,54.73195,25.23050,http://www.stops.lt/vilnius/index.html#stop/3311,,
795,,"Deivių st.",,54.73562,25.22905,http://www.stops.lt/vilnius/index.html#stop/3310,,
7896,,"Jurgio Baltrušaičio st.",,54.72934,25.23892,http://www.stops.lt/vilnius/index.html#stop/3326,,
7897,,"Jurgio Baltrušaičio st.",,54.72903,25.23961,http://www.stops.lt/vilnius/index.html#stop/3327,,
8268,,"Jurgio Baltrušaičio st.",,54.72944,25.23738,http://www.stops.lt/vilnius/index.html#stop/3329,,
8275,,"Pašilaičių žiedas",,54.72842,25.23430,http://www.stops.lt/vilnius/index.html#stop/3335,,
9766,,"Pavilnionių st.",,54.73575,25.21449,http://www.stops.lt/vilnius/index.html#stop/3336,,
9768,,"Pavilnionių st.",,54.73569,25.21497,http://www.stops.lt/vilnius/index.html#stop/3337,,
9153,,"Perkūno st.",,54.73936,25.22720,http://www.stops.lt/vilnius/index.html#stop/3332,,
449,,"Filaretų st.",,54.68532,25.30853,http://www.stops.lt/vilnius/index.html#stop/1210,,
6571,,"Filaretų st.",,54.68473,25.30917,http://www.stops.lt/vilnius/index.html#stop/0437,,
603,,"Krivių st.",,54.68802,25.30531,http://www.stops.lt/vilnius/index.html#stop/1101,,
6568,,"Krivių st.",,54.68730,25.30562,http://www.stops.lt/vilnius/index.html#stop/0438,,
6572,,"Polocko st.",,54.68331,25.31286,http://www.stops.lt/vilnius/index.html#stop/1209,,
6565,,"Vasaros st.",,54.69130,25.30471,http://www.stops.lt/vilnius/index.html#stop/0439,,
6566,,"Vasaros st.",,54.69122,25.30503,http://www.stops.lt/vilnius/index.html#stop/1102,,
684,,"Markučiai",,54.67430,25.32268,http://www.stops.lt/vilnius/index.html#stop/1218,,
387,,"Belmontas",,54.68403,25.32038,http://www.stops.lt/vilnius/index.html#stop/1217,,
5425,,"Belmontas",,54.68379,25.31940,http://www.stops.lt/vilnius/index.html#stop/1211,,
5421,,"Mildos st.",,54.69162,25.34337,http://www.stops.lt/vilnius/index.html#stop/1216,,
5372,,"Rudens st.",,54.68640,25.32505,http://www.stops.lt/vilnius/index.html#stop/1213,,
5424,,"Rudens st.",,54.68599,25.32358,http://www.stops.lt/vilnius/index.html#stop/1212,,
5373,,"Šaudykla",,54.68894,25.33183,http://www.stops.lt/vilnius/index.html#stop/1215,,
5423,,"Šaudykla",,54.68902,25.33088,http://www.stops.lt/vilnius/index.html#stop/1214,,
931,,"Srovės st.",,54.68188,25.31555,http://www.stops.lt/vilnius/index.html#stop/1208,,
5857,,"Paplaujos st.",,54.67465,25.31948,http://www.stops.lt/vilnius/index.html#stop/1204,,
5858,,"Paplaujos st.",,54.67490,25.31879,http://www.stops.lt/vilnius/index.html#stop/1205,,
356,,"„Audėjas“",,54.67878,25.31164,http://www.stops.lt/vilnius/index.html#stop/1207,,
5925,,"„Audėjas“",,54.67839,25.31053,http://www.stops.lt/vilnius/index.html#stop/0424,,
1123,,"Zarasų st.",,54.67669,25.31012,http://www.stops.lt/vilnius/index.html#stop/1203,,
8336,,"Markučiai",,54.67440,25.32220,http://www.stops.lt/vilnius/index.html#stop/1206,,
6705,,"Alėja",,54.67718,25.38428,http://www.stops.lt/vilnius/index.html#stop/1414,,
6706,,"Alėja",,54.67721,25.38291,http://www.stops.lt/vilnius/index.html#stop/1413,,
6703,,"Gamtininkų st.",,54.67501,25.36818,http://www.stops.lt/vilnius/index.html#stop/1412,,
6704,,"Gamtininkų st.",,54.67492,25.36752,http://www.stops.lt/vilnius/index.html#stop/1411,,
6695,,"Grūdų st.",,54.66806,25.35946,http://www.stops.lt/vilnius/index.html#stop/1407,,
6696,,"Grūdų st.",,54.66857,25.35989,http://www.stops.lt/vilnius/index.html#stop/1408,,
6699,,"Pavilnys",,54.67112,25.36125,http://www.stops.lt/vilnius/index.html#stop/1409,,
6700,,"Pavilnys",,54.67156,25.36160,http://www.stops.lt/vilnius/index.html#stop/1410,,
6707,,"Strelčiukai",,54.67787,25.39851,http://www.stops.lt/vilnius/index.html#stop/1416,,
6708,,"Strelčiukai",,54.67782,25.39695,http://www.stops.lt/vilnius/index.html#stop/1415,,
6693,,"Garsioji st.",,54.66689,25.35356,http://www.stops.lt/vilnius/index.html#stop/1405,,
6694,,"Garsioji st.",,54.66690,25.35569,http://www.stops.lt/vilnius/index.html#stop/1406,,
7716,,"Šumsko kryptis",,54.65889,25.36440,http://www.stops.lt/vilnius/index.html#stop/1427,,
7818,,"Ašmenėlės st.",,54.66035,25.35536,http://www.stops.lt/vilnius/index.html#stop/1428,,
7819,,"Ašmenėlės st.",,54.66028,25.35559,http://www.stops.lt/vilnius/index.html#stop/1429,,
6688,,"Guriai",,54.66285,25.34007,http://www.stops.lt/vilnius/index.html#stop/1401,,
7710,,"Guriai",,54.66245,25.34243,http://www.stops.lt/vilnius/index.html#stop/1422,,
7714,,"Gurių sodai",,54.65986,25.35971,http://www.stops.lt/vilnius/index.html#stop/1425,,
7715,,"Gurių sodai",,54.65997,25.35911,http://www.stops.lt/vilnius/index.html#stop/1426,,
7711,,"Pranciškaus Baltraus Šivickio st.",,54.66124,25.34986,http://www.stops.lt/vilnius/index.html#stop/1423,,
7712,,"Pranciškaus Baltraus Šivickio st.",,54.66132,25.34958,http://www.stops.lt/vilnius/index.html#stop/1424,,
617,,"Kinologijos centras",,54.64925,25.32053,http://www.stops.lt/vilnius/index.html#stop/1417,,
6121,,"Minsko plentas",,54.64501,25.33736,http://www.stops.lt/vilnius/index.html#stop/1418,,
6123,,"Sodai",,54.64299,25.34566,http://www.stops.lt/vilnius/index.html#stop/1419,,
6687,,"Guriai",,54.66331,25.34187,http://www.stops.lt/vilnius/index.html#stop/1402,,
6690,,"Pavilnio sodai",,54.66494,25.34565,http://www.stops.lt/vilnius/index.html#stop/1403,,
6691,,"Pavilnio sodai",,54.66501,25.34655,http://www.stops.lt/vilnius/index.html#stop/1404,,
7364,,"Žemasis Pavilnys",,54.67924,25.35934,http://www.stops.lt/vilnius/index.html#stop/1421,,
9660,,"Pavilnio regioninis parkas",,54.66049,25.33770,http://www.stops.lt/vilnius/index.html#stop/1436,,
9661,,"Pavilnio regioninis parkas",,54.66063,25.33764,http://www.stops.lt/vilnius/index.html#stop/1437,,
8344,,"Tuputiškės",,54.67649,25.34376,http://www.stops.lt/vilnius/index.html#stop/1434,,
8345,,"Tuputiškės",,54.67655,25.34235,http://www.stops.lt/vilnius/index.html#stop/1435,,
8333,,"Žemoji st.",,54.67616,25.35118,http://www.stops.lt/vilnius/index.html#stop/1432,,
8335,,"Žemoji st.",,54.67619,25.35090,http://www.stops.lt/vilnius/index.html#stop/1433,,
8331,,"Žiedų st.",,54.67762,25.35552,http://www.stops.lt/vilnius/index.html#stop/1430,,
8332,,"Žiedų st.",,54.67737,25.35472,http://www.stops.lt/vilnius/index.html#stop/1431,,
7693,,"Bitėnų st.",,54.70178,25.17204,http://www.stops.lt/vilnius/index.html#stop/3612,,
7694,,"Bitėnų st.",,54.70159,25.17223,http://www.stops.lt/vilnius/index.html#stop/3613,,
4526,,"Gilužio st.",,54.70400,25.17438,http://www.stops.lt/vilnius/index.html#stop/3609,,
7695,,"Gilužio st.",,54.70451,25.17449,http://www.stops.lt/vilnius/index.html#stop/3614,,
8067,,"Karaliaučiaus st.",,54.70798,25.17510,http://www.stops.lt/vilnius/index.html#stop/3628,,
8059,,"Papilėnų st.",,54.70822,25.18660,http://www.stops.lt/vilnius/index.html#stop/3604,,
7948,,"Įsruties st.",,54.71045,25.18122,http://www.stops.lt/vilnius/index.html#stop/3623,,
7949,,"Įsruties st.",,54.70994,25.18293,http://www.stops.lt/vilnius/index.html#stop/3624,,
7950,,"Pajautos st.",,54.71050,25.17406,http://www.stops.lt/vilnius/index.html#stop/3625,,
7951,,"Pajautos st.",,54.71018,25.17608,http://www.stops.lt/vilnius/index.html#stop/3626,,
7959,,"Pajautos st.",,54.70977,25.17488,http://www.stops.lt/vilnius/index.html#stop/3627,,
8060,,"Pilaitė",,54.70433,25.20108,http://www.stops.lt/vilnius/index.html#stop/3602,,
4988,,"Piliakalnio st.",,54.69988,25.21163,http://www.stops.lt/vilnius/index.html#stop/5164,,
4989,,"Piliakalnio st.",,54.69947,25.21286,http://www.stops.lt/vilnius/index.html#stop/5165,,
7947,,"Smalinės st.",,54.70932,25.18742,http://www.stops.lt/vilnius/index.html#stop/3622,,
8069,,"Smalinės st.",,54.70855,25.18792,http://www.stops.lt/vilnius/index.html#stop/3629,,
6621,,"Senoji  Pilaitė",,54.70416,25.19664,http://www.stops.lt/vilnius/index.html#stop/3601,,
6611,,"Karaliaučiaus st.",,54.70725,25.17582,http://www.stops.lt/vilnius/index.html#stop/3607,,
6612,,"Karaliaučiaus st.",,54.70737,25.17598,http://www.stops.lt/vilnius/index.html#stop/3608,,
6618,,"Papilėnų st.",,54.70694,25.18710,http://www.stops.lt/vilnius/index.html#stop/3603,,
6614,,"Tolminkiemio st.",,54.70736,25.18119,http://www.stops.lt/vilnius/index.html#stop/3606,,
6615,,"Tolminkiemio st.",,54.70721,25.18009,http://www.stops.lt/vilnius/index.html#stop/3605,,
9561,,"Papilėnų st.",,54.70753,25.18781,http://www.stops.lt/vilnius/index.html#stop/3635,,
8370,,"Padekaniškės",,54.71059,25.16035,http://www.stops.lt/vilnius/index.html#stop/3632,,
8371,,"Padekaniškės",,54.71052,25.16118,http://www.stops.lt/vilnius/index.html#stop/3633,,
8934,,"Pilaitė",,54.70304,25.20171,http://www.stops.lt/vilnius/index.html#stop/3634,,
5948,,"Liepkalnis",,54.66285,25.29885,http://www.stops.lt/vilnius/index.html#stop/1514,,
6019,,"Perlojos st.",,54.66423,25.29368,http://www.stops.lt/vilnius/index.html#stop/1512,,
6020,,"Perlojos st.",,54.66464,25.29225,http://www.stops.lt/vilnius/index.html#stop/1317,,
5946,,"Liepkalnis",,54.66287,25.29995,http://www.stops.lt/vilnius/index.html#stop/1316,,
5947,,"Liepkalnis",,54.66298,25.30015,http://www.stops.lt/vilnius/index.html#stop/1315,,
5998,,"Žirnių st.",,54.65485,25.30304,http://www.stops.lt/vilnius/index.html#stop/1314,,
6673,,"Gervėčių st.",,54.67460,25.29728,http://www.stops.lt/vilnius/index.html#stop/0418,,
6674,,"Gervėčių st.",,54.67336,25.29882,http://www.stops.lt/vilnius/index.html#stop/0419,,
6675,,"Rasų kapinės",,54.67005,25.30123,http://www.stops.lt/vilnius/index.html#stop/1307,,
6676,,"Rasų kapinės",,54.67055,25.30099,http://www.stops.lt/vilnius/index.html#stop/1306,,
6678,,"Dunojaus st.",,54.66644,25.30701,http://www.stops.lt/vilnius/index.html#stop/1309,,
6679,,"Dunojaus st.",,54.66657,25.30666,http://www.stops.lt/vilnius/index.html#stop/1308,,
6682,,"Juodasis kelias",,54.66648,25.32460,http://www.stops.lt/vilnius/index.html#stop/1312,,
6683,,"Juodasis kelias",,54.66634,25.32542,http://www.stops.lt/vilnius/index.html#stop/1313,,
6680,,"Ribiškės",,54.66687,25.31260,http://www.stops.lt/vilnius/index.html#stop/1310,,
6681,,"Ribiškės",,54.66684,25.31329,http://www.stops.lt/vilnius/index.html#stop/1311,,
7688,,"Balstogės st.",,54.67212,25.30496,http://www.stops.lt/vilnius/index.html#stop/1318,,
7689,,"Balstogės st.",,54.67137,25.30457,http://www.stops.lt/vilnius/index.html#stop/1319,,
8365,,"Liepkalnis",,54.66284,25.29930,http://www.stops.lt/vilnius/index.html#stop/1519,,
7108,,"Beržų st.",,54.80771,25.24820,http://www.stops.lt/vilnius/index.html#stop/5135,,
7344,,"Beržų st.",,54.80781,25.24737,http://www.stops.lt/vilnius/index.html#stop/5192,,
7109,,"Riešės gimnazija",,54.80856,25.23469,http://www.stops.lt/vilnius/index.html#stop/5104,,
7110,,"Riešės gimnazija",,54.80872,25.23333,http://www.stops.lt/vilnius/index.html#stop/5103,,
7106,,"Didžioji Riešė",,54.80610,25.25682,http://www.stops.lt/vilnius/index.html#stop/5101,,
7107,,"Didžioji Riešė",,54.80684,25.25674,http://www.stops.lt/vilnius/index.html#stop/5102,,
7103,,"Kaštonų st.",,54.79815,25.26213,http://www.stops.lt/vilnius/index.html#stop/5131,,
7104,,"Kaštonų st.",,54.79836,25.26211,http://www.stops.lt/vilnius/index.html#stop/5132,,
7097,,"Kiparisų st.",,54.78211,25.27210,http://www.stops.lt/vilnius/index.html#stop/5125,,
7098,,"Kiparisų st.",,54.78256,25.27198,http://www.stops.lt/vilnius/index.html#stop/5126,,
7101,,"Lauko st.",,54.79233,25.26606,http://www.stops.lt/vilnius/index.html#stop/5129,,
7102,,"Lauko st.",,54.79260,25.26596,http://www.stops.lt/vilnius/index.html#stop/5130,,
7099,,"Samanų st.",,54.78696,25.26909,http://www.stops.lt/vilnius/index.html#stop/5127,,
7100,,"Samanų st.",,54.78713,25.26907,http://www.stops.lt/vilnius/index.html#stop/5128,,
8324,,"Kooperatyvo st.",,54.80180,25.25981,http://www.stops.lt/vilnius/index.html#stop/5202,,
8325,,"Kooperatyvo st.",,54.80123,25.26007,http://www.stops.lt/vilnius/index.html#stop/5201,,
8472,,"Vanaginės žiedas",,54.78109,25.27316,http://www.stops.lt/vilnius/index.html#stop/5206,,
5975,,"Čekėnų st.",,54.59265,25.33948,http://www.stops.lt/vilnius/index.html#stop/4322,,
5976,,"Čekėnų st.",,54.59302,25.33798,http://www.stops.lt/vilnius/index.html#stop/4321,,
5978,,"Rudamina",,54.59135,25.34825,http://www.stops.lt/vilnius/index.html#stop/4320,,
5973,,"Rudaminos paukštynas",,54.59464,25.32951,http://www.stops.lt/vilnius/index.html#stop/4324,,
5974,,"Rudaminos paukštynas",,54.59484,25.32915,http://www.stops.lt/vilnius/index.html#stop/4323,,
5981,,"Draugystės st.",,54.59598,25.36412,http://www.stops.lt/vilnius/index.html#stop/4318,,
5982,,"Draugystės st.",,54.59592,25.36351,http://www.stops.lt/vilnius/index.html#stop/4317,,
6260,,"Mechanikų st.",,54.60968,25.25171,http://www.stops.lt/vilnius/index.html#stop/2708,,
6261,,"Mechanikų st.",,54.60974,25.25153,http://www.stops.lt/vilnius/index.html#stop/2709,,
6257,,"Salininkai",,54.60609,25.25036,http://www.stops.lt/vilnius/index.html#stop/2710,,
6263,,"Salininkų žiedas",,54.61419,25.25197,http://www.stops.lt/vilnius/index.html#stop/2706,,
6264,,"Salininkų žiedas",,54.61403,25.25182,http://www.stops.lt/vilnius/index.html#stop/2707,,
6972,,"Kelmijos sodai",,54.60789,25.24404,http://www.stops.lt/vilnius/index.html#stop/5137,,
6973,,"Kelmijos sodai",,54.60828,25.24382,http://www.stops.lt/vilnius/index.html#stop/5136,,
6253,,"Melioratorių st.",,54.60512,25.26033,http://www.stops.lt/vilnius/index.html#stop/2713,,
6254,,"Melioratorių st.",,54.60525,25.25838,http://www.stops.lt/vilnius/index.html#stop/2712,,
6246,,"Pervaža",,54.60948,25.27456,http://www.stops.lt/vilnius/index.html#stop/2715,,
6247,,"Pervaža",,54.60923,25.27467,http://www.stops.lt/vilnius/index.html#stop/4008,,
4705,,"Raistelių miškas",,54.61127,25.23016,http://www.stops.lt/vilnius/index.html#stop/5145,,
4706,,"Raistelių miškas",,54.61112,25.23105,http://www.stops.lt/vilnius/index.html#stop/5146,,
6243,,"Sakalaičių st.",,54.61463,25.27557,http://www.stops.lt/vilnius/index.html#stop/2638,,
6244,,"Sakalaičių st.",,54.61421,25.27568,http://www.stops.lt/vilnius/index.html#stop/4007,,
6256,,"Salininkai",,54.60566,25.25161,http://www.stops.lt/vilnius/index.html#stop/2711,,
6240,,"Salininkų sodai",,54.61803,25.28348,http://www.stops.lt/vilnius/index.html#stop/2637,,
6241,,"Salininkų sodai",,54.61823,25.28465,http://www.stops.lt/vilnius/index.html#stop/4006,,
6248,,"Vilniaus st.",,54.60566,25.26949,http://www.stops.lt/vilnius/index.html#stop/2714,,
6249,,"Vilniaus st.",,54.60611,25.27069,http://www.stops.lt/vilnius/index.html#stop/2815,,
9757,,"Avinėlių st.",,54.60153,25.27409,http://www.stops.lt/vilnius/index.html#stop/2732,,
9759,,"Avinėlių st.",,54.60117,25.27397,http://www.stops.lt/vilnius/index.html#stop/2733,,
9740,,"Salininkai",,54.60621,25.25050,http://www.stops.lt/vilnius/index.html#stop/2731,,
8329,,"Pupinė",,54.62137,25.29469,http://www.stops.lt/vilnius/index.html#stop/2646,,
8330,,"Pupinė",,54.62153,25.29581,http://www.stops.lt/vilnius/index.html#stop/2647,,
9003,,"Salininkai",,54.60589,25.24960,http://www.stops.lt/vilnius/index.html#stop/2719,,
370,,"Bajorų sodai",,54.75765,25.25659,http://www.stops.lt/vilnius/index.html#stop/2105,,
6778,,"Akademijos st.",,54.75262,25.27066,http://www.stops.lt/vilnius/index.html#stop/2107,,
6774,,"Maumedžių st.",,54.74065,25.26436,http://www.stops.lt/vilnius/index.html#stop/2131,,
6775,,"Maumedžių st.",,54.74108,25.26437,http://www.stops.lt/vilnius/index.html#stop/2132,,
7980,,"Akademijos st.",,54.75382,25.27011,http://www.stops.lt/vilnius/index.html#stop/2143,,
8084,,"Geležinio Vilko st.",,54.75677,25.27172,http://www.stops.lt/vilnius/index.html#stop/2145,,
6503,,"Žaliųjų Ežerų st.",,54.74837,25.27911,http://www.stops.lt/vilnius/index.html#stop/2116,,
7046,,"Jono Kairiūkščio st.",,54.75712,25.27013,http://www.stops.lt/vilnius/index.html#stop/2110,,
7047,,"Jono Kairiūkščio st.",,54.75705,25.27026,http://www.stops.lt/vilnius/index.html#stop/2109,,
1115,,"Visoriai",,54.75773,25.26482,http://www.stops.lt/vilnius/index.html#stop/2111,,
7968,,"Akademijos st.",,54.75352,25.26838,http://www.stops.lt/vilnius/index.html#stop/2144,,
7052,,"Chemijos institutas",,54.75385,25.26385,http://www.stops.lt/vilnius/index.html#stop/2133,,
6783,,"Molėtų plentas",,54.75031,25.27754,http://www.stops.lt/vilnius/index.html#stop/2118,,
7094,,"Vanaginė",,54.77369,25.27198,http://www.stops.lt/vilnius/index.html#stop/5107,,
7095,,"Vanaginė",,54.77539,25.27291,http://www.stops.lt/vilnius/index.html#stop/5106,,
7826,,"Muzikų st.",,54.75921,25.28157,http://www.stops.lt/vilnius/index.html#stop/2134,,
7827,,"Muzikų st.",,54.75832,25.28103,http://www.stops.lt/vilnius/index.html#stop/2135,,
6526,,"Santariškės",,54.75200,25.27979,http://www.stops.lt/vilnius/index.html#stop/2121,,
6532,,"Santariškės",,54.75286,25.28031,http://www.stops.lt/vilnius/index.html#stop/2122,,
7828,,"Santariškių žiedas",,54.76359,25.28252,http://www.stops.lt/vilnius/index.html#stop/2136,,
7830,,"Santariškių žiedas",,54.76370,25.28215,http://www.stops.lt/vilnius/index.html#stop/2137,,
6533,,"Vaikų ligoninė",,54.75633,25.28131,http://www.stops.lt/vilnius/index.html#stop/2123,,
7831,,"Vaikų ligoninė",,54.75551,25.28054,http://www.stops.lt/vilnius/index.html#stop/2138,,
6525,,"Žaliųjų Ežerų st.",,54.75062,25.27982,http://www.stops.lt/vilnius/index.html#stop/2120,,
6794,,"Petro Baublio st.",,54.75150,25.28655,http://www.stops.lt/vilnius/index.html#stop/2125,,
6795,,"Petro Baublio st.",,54.75183,25.28788,http://www.stops.lt/vilnius/index.html#stop/2127,,
6791,,"Žaliųjų Ežerų st.",,54.74967,25.28111,http://www.stops.lt/vilnius/index.html#stop/2119,,
8326,,"Akademijos st.",,54.75258,25.27258,http://www.stops.lt/vilnius/index.html#stop/2141,,
8327,,"Molėtų plentas",,54.74975,25.27810,http://www.stops.lt/vilnius/index.html#stop/2117,,
8323,,"Geležinio Vilko st.",,54.75753,25.27231,http://www.stops.lt/vilnius/index.html#stop/2146,,
8716,,"Vaikų ligoninė",,54.75613,25.28085,http://www.stops.lt/vilnius/index.html#stop/2147,,
7278,,"Karaliaus Mindaugo tiltas",,54.68818,25.28902,http://www.stops.lt/vilnius/index.html#stop/0441,,
6714,,"Aušros vartai",,54.67368,25.28949,http://www.stops.lt/vilnius/index.html#stop/0416,,
5892,,"Bernardinų sodas",,54.68497,25.29110,http://www.stops.lt/vilnius/index.html#stop/0432,,
5893,,"Bernardinų sodas",,54.68472,25.29025,http://www.stops.lt/vilnius/index.html#stop/0431,,
5355,,"Bazilijonų st.",,54.67408,25.28657,http://www.stops.lt/vilnius/index.html#stop/5153,,
5430,,"Gėlių st.",,54.67428,25.28370,http://www.stops.lt/vilnius/index.html#stop/0412,,
5605,,"Trakų st.",,54.68004,25.27628,http://www.stops.lt/vilnius/index.html#stop/0408,,
5941,,"Pelesos st.",,54.67108,25.29127,http://www.stops.lt/vilnius/index.html#stop/1302,,
5942,,"Pelesos st.",,54.67140,25.29175,http://www.stops.lt/vilnius/index.html#stop/1303,,
5944,,"Stadionas",,54.66756,25.29710,http://www.stops.lt/vilnius/index.html#stop/1305,,
5945,,"Stadionas",,54.66848,25.29639,http://www.stops.lt/vilnius/index.html#stop/1304,,
407,,"Dailės akademija",,54.68212,25.29297,http://www.stops.lt/vilnius/index.html#stop/0429,,
5894,,"Dailės akademija",,54.68381,25.29286,http://www.stops.lt/vilnius/index.html#stop/0430,,
7123,,"Užupio st.",,54.67994,25.29236,http://www.stops.lt/vilnius/index.html#stop/0427,,
7124,,"Užupio st.",,54.67991,25.29266,http://www.stops.lt/vilnius/index.html#stop/0426,,
5358,,"Aušros vartai",,54.67467,25.29261,http://www.stops.lt/vilnius/index.html#stop/0417,,
6574,,"Polocko st.",,54.68270,25.31266,http://www.stops.lt/vilnius/index.html#stop/0436,,
6008,,"Panevėžio st.",,54.66793,25.28368,http://www.stops.lt/vilnius/index.html#stop/0529,,
6009,,"Panevėžio st.",,54.66814,25.28476,http://www.stops.lt/vilnius/index.html#stop/1509,,
6005,,"Pelesos st.",,54.67085,25.28921,http://www.stops.lt/vilnius/index.html#stop/0528,,
6006,,"Pelesos st.",,54.67091,25.28961,http://www.stops.lt/vilnius/index.html#stop/1301,,
5339,,"Reformatų st.",,54.68117,25.27731,http://www.stops.lt/vilnius/index.html#stop/0407,,
5432,,"Reformatų st.",,54.68149,25.27740,http://www.stops.lt/vilnius/index.html#stop/0406,,
6834,,"Rūdninkų st.",,54.67454,25.28492,http://www.stops.lt/vilnius/index.html#stop/0413,,
5345,,"Trakų st.",,54.67934,25.27802,http://www.stops.lt/vilnius/index.html#stop/0409,,
5346,,"Trakų st.",,54.67899,25.27851,http://www.stops.lt/vilnius/index.html#stop/0410,,
5349,,"Vingriai",,54.67665,25.28086,http://www.stops.lt/vilnius/index.html#stop/0411,,
5902,,"Bernardinų kapinės",,54.68145,25.30538,http://www.stops.lt/vilnius/index.html#stop/0434,,
5904,,"Bernardinų st.",,54.68200,25.31198,http://www.stops.lt/vilnius/index.html#stop/0435,,
5901,,"Užupis",,54.68121,25.30076,http://www.stops.lt/vilnius/index.html#stop/0433,,
5360,,"Misionierių st.",,54.67658,25.29720,http://www.stops.lt/vilnius/index.html#stop/0420,,
5428,,"Misionierių st.",,54.67662,25.29652,http://www.stops.lt/vilnius/index.html#stop/0421,,
946,,"Subačiaus st.",,54.67723,25.30249,http://www.stops.lt/vilnius/index.html#stop/0423,,
5362,,"Subačiaus st.",,54.67701,25.30362,http://www.stops.lt/vilnius/index.html#stop/0422,,
5854,,"Zarasų st.",,54.67624,25.31040,http://www.stops.lt/vilnius/index.html#stop/1201,,
5855,,"Zarasų st.",,54.67658,25.30940,http://www.stops.lt/vilnius/index.html#stop/1202,,
5771,,"Kalnų parkas",,54.68938,25.29450,http://www.stops.lt/vilnius/index.html#stop/0403,,
6573,,"Kalnų parkas",,54.68965,25.29581,http://www.stops.lt/vilnius/index.html#stop/0404,,
5768,,"Šv. Petro ir Povilo bažnyčia",,54.69301,25.30313,http://www.stops.lt/vilnius/index.html#stop/0401,,
5770,,"Šv. Petro ir Povilo bažnyčia",,54.69275,25.30315,http://www.stops.lt/vilnius/index.html#stop/0402,,
5900,,"Vilnios st.",,54.68024,25.29365,http://www.stops.lt/vilnius/index.html#stop/0428,,
7840,,"Gervėčių st.",,54.67383,25.29903,http://www.stops.lt/vilnius/index.html#stop/0443,,
7841,,"Gervėčių st.",,54.67365,25.29757,http://www.stops.lt/vilnius/index.html#stop/0444,,
9013,,"Rotušė",,54.67823,25.28634,http://www.stops.lt/vilnius/index.html#stop/0247,,
8821,,"Ramybės st.",,54.67215,25.29896,http://www.stops.lt/vilnius/index.html#stop/0445,,
9012,,"Vokiečių st.",,54.68057,25.28274,http://www.stops.lt/vilnius/index.html#stop/0245,,
393,,"Buivydiškių st.",,54.71394,25.23743,http://www.stops.lt/vilnius/index.html#stop/1910,,
394,,"Buivydiškių st.",,54.71322,25.23789,http://www.stops.lt/vilnius/index.html#stop/1909,,
855,,"Rygos st.",,54.71575,25.23211,http://www.stops.lt/vilnius/index.html#stop/1911,,
5074,,"Vaikų kaimas",,54.70949,25.24035,http://www.stops.lt/vilnius/index.html#stop/1908,,
6933,,"Gelvonėlio st.",,54.71443,25.25677,http://www.stops.lt/vilnius/index.html#stop/1924,,
6934,,"Gelvonėlio st.",,54.71505,25.25741,http://www.stops.lt/vilnius/index.html#stop/1925,,
6928,,"Gelvonų st.",,54.71764,25.25763,http://www.stops.lt/vilnius/index.html#stop/1927,,
6929,,"Gelvonų st.",,54.71838,25.25767,http://www.stops.lt/vilnius/index.html#stop/1928,,
3512,,"Šeškinės kalvos",,54.71157,25.25700,http://www.stops.lt/vilnius/index.html#stop/1930,,
6478,,"Čiobiškio st.",,54.71893,25.23200,http://www.stops.lt/vilnius/index.html#stop/3219,,
6479,,"Čiobiškio st.",,54.71946,25.23292,http://www.stops.lt/vilnius/index.html#stop/1913,,
5067,,"Rygos st.",,54.71687,25.23153,http://www.stops.lt/vilnius/index.html#stop/1912,,
6477,,"Rygos st.",,54.71560,25.23019,http://www.stops.lt/vilnius/index.html#stop/1802,,
6937,,"Šeškinės kalvos",,54.71085,25.25622,http://www.stops.lt/vilnius/index.html#stop/1931,,
7017,,"Šeškinės kalvos",,54.71109,25.25819,http://www.stops.lt/vilnius/index.html#stop/1923,,
904,,"Siesikų st.",,54.70980,25.24424,http://www.stops.lt/vilnius/index.html#stop/1906,,
905,,"Siesikų st.",,54.70985,25.24636,http://www.stops.lt/vilnius/index.html#stop/1905,,
1069,,"Vaikų kaimas",,54.70877,25.24118,http://www.stops.lt/vilnius/index.html#stop/1907,,
6940,,"Paberžės st.",,54.71616,25.25481,http://www.stops.lt/vilnius/index.html#stop/1926,,
6941,,"Paberžės st.",,54.71617,25.25358,http://www.stops.lt/vilnius/index.html#stop/1929,,
5209,,"Dūkštų st.",,54.71500,25.24638,http://www.stops.lt/vilnius/index.html#stop/1918,,
7003,,"Dūkštų st.",,54.71486,25.24528,http://www.stops.lt/vilnius/index.html#stop/1917,,
733,,"Musninkų st.",,54.71665,25.24386,http://www.stops.lt/vilnius/index.html#stop/1920,,
5206,,"Musninkų st.",,54.71690,25.24484,http://www.stops.lt/vilnius/index.html#stop/1933,,
5208,,"Musninkų st.",,54.71662,25.24452,http://www.stops.lt/vilnius/index.html#stop/1919,,
1042,,"Ukmergės st.",,54.71319,25.25155,http://www.stops.lt/vilnius/index.html#stop/1922,,
5214,,"Šeškinė",,54.70963,25.25157,http://www.stops.lt/vilnius/index.html#stop/1903,,
5290,,"Šeškinė",,54.70976,25.25213,http://www.stops.lt/vilnius/index.html#stop/1902,,
986,,"Šeškinės poliklinika",,54.71606,25.24745,http://www.stops.lt/vilnius/index.html#stop/1921,,
5452,,"Šeškinės poliklinika",,54.71545,25.24715,http://www.stops.lt/vilnius/index.html#stop/1932,,
1039,,"Ukmergės st.",,54.71245,25.24974,http://www.stops.lt/vilnius/index.html#stop/1916,,
5212,,"Ukmergės st.",,54.71194,25.24942,http://www.stops.lt/vilnius/index.html#stop/1915,,
5294,,"Ukmergės st.",,54.71201,25.24880,http://www.stops.lt/vilnius/index.html#stop/1914,,
5985,,"Skaidiškės",,54.60586,25.38366,http://www.stops.lt/vilnius/index.html#stop/4313,,
5986,,"Skaidiškės",,54.60651,25.38366,http://www.stops.lt/vilnius/index.html#stop/4314,,
6137,,"Skaidiškės",,54.60582,25.38275,http://www.stops.lt/vilnius/index.html#stop/4316,,
5988,,"Skaidiškių žiedas",,54.60943,25.38599,http://www.stops.lt/vilnius/index.html#stop/4312,,
863,,"Skaistės st.",,54.60573,25.39316,http://www.stops.lt/vilnius/index.html#stop/4315,,
6844,,"Broniaus Laurinavičiaus skveras",,54.70419,25.28405,http://www.stops.lt/vilnius/index.html#stop/0914,,
5351,,"Giedraičių st.",,54.70734,25.28494,http://www.stops.lt/vilnius/index.html#stop/0707,,
6845,,"Giedraičių st.",,54.70804,25.28550,http://www.stops.lt/vilnius/index.html#stop/0916,,
7850,,"Giedraičių st.",,54.70763,25.28508,http://www.stops.lt/vilnius/index.html#stop/0707a,,
5481,,"Pramogų arena",,54.71448,25.28668,http://www.stops.lt/vilnius/index.html#stop/0709,,
5861,,"Pramogų arena",,54.71619,25.28693,http://www.stops.lt/vilnius/index.html#stop/0802,,
5347,,"Tauragnų st.",,54.71169,25.28630,http://www.stops.lt/vilnius/index.html#stop/0708,,
5469,,"Tauragnų st.",,54.71234,25.28672,http://www.stops.lt/vilnius/index.html#stop/0803,,
5467,,"Žalgirio st.",,54.70308,25.28353,http://www.stops.lt/vilnius/index.html#stop/0705,,
6788,,"Žalgirio st.",,54.70436,25.28434,http://www.stops.lt/vilnius/index.html#stop/0915,,
5498,,"Žalgirio st.",,54.70390,25.28302,http://www.stops.lt/vilnius/index.html#stop/0706,,
8460,,"Ozo žiedas",,54.71465,25.27770,http://www.stops.lt/vilnius/index.html#stop/0825,,
8462,,"Ozo žiedas",,54.71539,25.27730,http://www.stops.lt/vilnius/index.html#stop/0827,,
7615,,"Raudonbalė",,54.74949,25.18092,http://www.stops.lt/vilnius/index.html#stop/3910,,
8045,,"Laidagaliai",,54.74679,25.19024,http://www.stops.lt/vilnius/index.html#stop/5008,,
8046,,"Laidagaliai",,54.74669,25.19071,http://www.stops.lt/vilnius/index.html#stop/5009,,
8043,,"Tarandė",,54.74935,25.20792,http://www.stops.lt/vilnius/index.html#stop/5006,,
8044,,"Tarandė",,54.74930,25.20739,http://www.stops.lt/vilnius/index.html#stop/5007,,
8047,,"Tomo Žebrausko st.",,54.74830,25.20057,http://www.stops.lt/vilnius/index.html#stop/5010,,
8048,,"Tomo Žebrausko st.",,54.74813,25.20004,http://www.stops.lt/vilnius/index.html#stop/5011,,
7081,,"Bukiškių st.",,54.75758,25.20566,http://www.stops.lt/vilnius/index.html#stop/5005,,
7078,,"Medelynas",,54.75095,25.21377,http://www.stops.lt/vilnius/index.html#stop/5003,,
7079,,"Medelynas",,54.74959,25.21489,http://www.stops.lt/vilnius/index.html#stop/5004,,
7076,,"Pavilionys",,54.74187,25.22410,http://www.stops.lt/vilnius/index.html#stop/5001,,
7077,,"Pavilionys",,54.74197,25.22351,http://www.stops.lt/vilnius/index.html#stop/5002,,
8447,,"Kelmiškių st.",,54.74913,25.17853,http://www.stops.lt/vilnius/index.html#stop/5014,,
8444,,"Pagrandos st.",,54.74617,25.18268,http://www.stops.lt/vilnius/index.html#stop/5012,,
8445,,"Pagrandos st.",,54.74607,25.18262,http://www.stops.lt/vilnius/index.html#stop/5013,,
7062,,"Eduardo Andrė st.",,54.62894,25.10773,http://www.stops.lt/vilnius/index.html#stop/3101,,
4516,,"Trakų Vokė",,54.62400,25.11253,http://www.stops.lt/vilnius/index.html#stop/3109,,
7059,,"Trakų Vokė",,54.62368,25.11000,http://www.stops.lt/vilnius/index.html#stop/3106,,
4456,,"Gunkliškių st.",,54.62719,25.10132,http://www.stops.lt/vilnius/index.html#stop/3105,,
7724,,"Bičiulių st.",,54.60393,25.13419,http://www.stops.lt/vilnius/index.html#stop/3110,,
7725,,"Bičiulių st.",,54.60320,25.13492,http://www.stops.lt/vilnius/index.html#stop/3111,,
3572,,"Daniliškės",,54.60096,25.13817,http://www.stops.lt/vilnius/index.html#stop/3104,,
7804,,"Emilijos Pliaterytės st.",,54.61751,25.11650,http://www.stops.lt/vilnius/index.html#stop/3112,,
7805,,"Emilijos Pliaterytės st.",,54.61694,25.11685,http://www.stops.lt/vilnius/index.html#stop/3113,,
7068,,"Juodbaliai",,54.61193,25.12099,http://www.stops.lt/vilnius/index.html#stop/3102,,
7069,,"Juodbaliai",,54.61181,25.12099,http://www.stops.lt/vilnius/index.html#stop/3103,,
4506,,"Juozo Tiškevičiaus st.",,54.62135,25.11329,http://www.stops.lt/vilnius/index.html#stop/3107,,
4507,,"Juozo Tiškevičiaus st.",,54.62198,25.11288,http://www.stops.lt/vilnius/index.html#stop/3108,,
7726,,"Metropolis",,54.60829,25.12929,http://www.stops.lt/vilnius/index.html#stop/3114,,
7727,,"Metropolis",,54.60861,25.12894,http://www.stops.lt/vilnius/index.html#stop/3115,,
6966,,"Ąžuolijai",,54.62186,25.24387,http://www.stops.lt/vilnius/index.html#stop/2704,,
6968,,"Ąžuolijai",,54.62168,25.24273,http://www.stops.lt/vilnius/index.html#stop/5117,,
6963,,"Eišiškių sodai",,54.62740,25.24954,http://www.stops.lt/vilnius/index.html#stop/2702,,
6964,,"Eišiškių sodai",,54.62625,25.24947,http://www.stops.lt/vilnius/index.html#stop/2703,,
6974,,"Raisteliai",,54.61123,25.21761,http://www.stops.lt/vilnius/index.html#stop/5108,,
6975,,"Raisteliai",,54.61139,25.21812,http://www.stops.lt/vilnius/index.html#stop/5109,,
6967,,"Ąžuolijai",,54.62026,25.24455,http://www.stops.lt/vilnius/index.html#stop/2705,,
6956,,"Dieveniškių st.",,54.63385,25.24939,http://www.stops.lt/vilnius/index.html#stop/2717,,
6957,,"Dieveniškių st.",,54.63397,25.24880,http://www.stops.lt/vilnius/index.html#stop/2716,,
6959,,"Užusienis",,54.63298,25.23943,http://www.stops.lt/vilnius/index.html#stop/2701,,
5756,,"Šaltinio st.",,54.60146,25.18236,http://www.stops.lt/vilnius/index.html#stop/2816,,
5757,,"Šaltinio st.",,54.60171,25.18311,http://www.stops.lt/vilnius/index.html#stop/2817,,
3575,,"Vaidotai",,54.59882,25.17651,http://www.stops.lt/vilnius/index.html#stop/2501,,
9773,,"Krantinės st.",,54.60426,25.19148,http://www.stops.lt/vilnius/index.html#stop/2824,,
9732,,"Vėjo st.",,54.59700,25.17573,http://www.stops.lt/vilnius/index.html#stop/2502,,
6907,,"Balžio st.",,54.79301,25.42879,http://www.stops.lt/vilnius/index.html#stop/3546,,
7471,,"Balžio st.",,54.79288,25.42904,http://www.stops.lt/vilnius/index.html#stop/3559,,
7470,,"Balžio žiedas",,54.79415,25.43671,http://www.stops.lt/vilnius/index.html#stop/3558,,
6905,,"Miškas",,54.78336,25.40428,http://www.stops.lt/vilnius/index.html#stop/3544,,
6906,,"Miškas",,54.78313,25.40360,http://www.stops.lt/vilnius/index.html#stop/3545,,
4426,,"Svajonių st.",,54.74068,25.31455,http://www.stops.lt/vilnius/index.html#stop/3554,,
5491,,"Oskaro Milašiaus st.",,54.72783,25.31438,http://www.stops.lt/vilnius/index.html#stop/3501,,
6084,,"Grybautojų st.",,54.73295,25.31820,http://www.stops.lt/vilnius/index.html#stop/3514,,
6080,,"Lakštingalų st.",,54.72995,25.32866,http://www.stops.lt/vilnius/index.html#stop/3517,,
6082,,"Žuvėdrų st.",,54.73140,25.32414,http://www.stops.lt/vilnius/index.html#stop/3515,,
6083,,"Žuvėdrų st.",,54.73133,25.32467,http://www.stops.lt/vilnius/index.html#stop/3516,,
7936,,"Laurų st.",,54.78954,25.38333,http://www.stops.lt/vilnius/index.html#stop/3560,,
6110,,"Lizdeikos st.",,54.72872,25.31366,http://www.stops.lt/vilnius/index.html#stop/3502,,
6109,,"Rato st.",,54.73082,25.30869,http://www.stops.lt/vilnius/index.html#stop/3503,,
6163,,"Antaviliai",,54.79863,25.39775,http://www.stops.lt/vilnius/index.html#stop/3547,,
6164,,"Antaviliai",,54.79822,25.39651,http://www.stops.lt/vilnius/index.html#stop/3548,,
6165,,"Antavilių žiedas",,54.79980,25.39922,http://www.stops.lt/vilnius/index.html#stop/3549,,
6140,,"Ežerėlių st.",,54.73855,25.34438,http://www.stops.lt/vilnius/index.html#stop/3522,,
6142,,"Ežerėlių st.",,54.73784,25.34252,http://www.stops.lt/vilnius/index.html#stop/3521,,
3610,,"Jono Biliūno st.",,54.79425,25.39154,http://www.stops.lt/vilnius/index.html#stop/3550,,
6162,,"Jono Biliūno st.",,54.79369,25.39077,http://www.stops.lt/vilnius/index.html#stop/3551,,
6154,,"Karačiūnai",,54.77234,25.38218,http://www.stops.lt/vilnius/index.html#stop/3540,,
6155,,"Karačiūnai",,54.77306,25.38303,http://www.stops.lt/vilnius/index.html#stop/3541,,
950,,"Kiškių st.",,54.73457,25.33814,http://www.stops.lt/vilnius/index.html#stop/3520,,
6141,,"Kiškių st.",,54.73383,25.33664,http://www.stops.lt/vilnius/index.html#stop/3519,,
6079,,"Lakštingalų st.",,54.72880,25.32883,http://www.stops.lt/vilnius/index.html#stop/1123,,
6081,,"Lakštingalų st.",,54.72998,25.33112,http://www.stops.lt/vilnius/index.html#stop/3518,,
6143,,"Nugalėtojų st.",,54.74176,25.34931,http://www.stops.lt/vilnius/index.html#stop/3553,,
6144,,"Nugalėtojų st.",,54.74172,25.34857,http://www.stops.lt/vilnius/index.html#stop/3552,,
6159,,"Šilas",,54.78210,25.38345,http://www.stops.lt/vilnius/index.html#stop/3542,,
6160,,"Šilas",,54.78313,25.38376,http://www.stops.lt/vilnius/index.html#stop/3543,,
6148,,"Smėlynė",,54.75471,25.36580,http://www.stops.lt/vilnius/index.html#stop/3537,,
6149,,"Smėlynė",,54.75437,25.36489,http://www.stops.lt/vilnius/index.html#stop/3536,,
6146,,"Turniškių miškas",,54.74815,25.35776,http://www.stops.lt/vilnius/index.html#stop/3534,,
6147,,"Turniškių miškas",,54.74838,25.35849,http://www.stops.lt/vilnius/index.html#stop/3535,,
6152,,"Veržuvos st.",,54.76149,25.37262,http://www.stops.lt/vilnius/index.html#stop/3538,,
6153,,"Veržuvos st.",,54.76224,25.37405,http://www.stops.lt/vilnius/index.html#stop/3539,,
976,,"Aukštoji Veržuva",,54.74999,25.42812,http://www.stops.lt/vilnius/index.html#stop/3533,,
6901,,"Vaguva",,54.74711,25.41714,http://www.stops.lt/vilnius/index.html#stop/3532,,
6902,,"Vaguva",,54.74725,25.41687,http://www.stops.lt/vilnius/index.html#stop/3531,,
6100,,"Bruknių st.",,54.74351,25.30352,http://www.stops.lt/vilnius/index.html#stop/3507,,
1028,,"Turniškės",,54.74512,25.32753,http://www.stops.lt/vilnius/index.html#stop/3510,,
6107,,"1-asis paplūdimys",,54.73311,25.29605,http://www.stops.lt/vilnius/index.html#stop/3504,,
6104,,"2-asis paplūdimys",,54.74239,25.29460,http://www.stops.lt/vilnius/index.html#stop/3506,,
6106,,"Vaidilutės st.",,54.73604,25.29455,http://www.stops.lt/vilnius/index.html#stop/3505,,
6087,,"Grybautojų st.",,54.73330,25.31756,http://www.stops.lt/vilnius/index.html#stop/3513,,
6090,,"Mėlynių st.",,54.73969,25.31569,http://www.stops.lt/vilnius/index.html#stop/3512,,
6095,,"Meškeriotojų st.",,54.74585,25.31977,http://www.stops.lt/vilnius/index.html#stop/3509,,
6096,,"Meškeriotojų st.",,54.74621,25.32017,http://www.stops.lt/vilnius/index.html#stop/3508,,
8025,,"Birelių žiedas",,54.82340,25.33043,http://www.stops.lt/vilnius/index.html#stop/2245,,
8094,,"Chemijos institutas",,54.75508,25.26182,http://www.stops.lt/vilnius/index.html#stop/2106,,
6816,,"Naujoji st.",,54.76332,25.34632,http://www.stops.lt/vilnius/index.html#stop/2224,,
6817,,"Naujoji st.",,54.76349,25.34598,http://www.stops.lt/vilnius/index.html#stop/2225,,
6820,,"Ožkiniai",,54.76718,25.36150,http://www.stops.lt/vilnius/index.html#stop/2217,,
6821,,"Ožkiniai",,54.76706,25.36011,http://www.stops.lt/vilnius/index.html#stop/2216,,
1144,,"Ožkinių žiedas",,54.76844,25.36646,http://www.stops.lt/vilnius/index.html#stop/2218,,
6818,,"Staviškės",,54.76398,25.35276,http://www.stops.lt/vilnius/index.html#stop/2215,,
6819,,"Staviškės",,54.76345,25.35162,http://www.stops.lt/vilnius/index.html#stop/2214,,
8012,,"Gulbinų st.",,54.80584,25.31892,http://www.stops.lt/vilnius/index.html#stop/2233,,
8016,,"Gulbinų st.",,54.80560,25.31976,http://www.stops.lt/vilnius/index.html#stop/2234,,
8011,,"Pagubė",,54.80796,25.31320,http://www.stops.lt/vilnius/index.html#stop/2235,,
6810,,"Kremplių st.",,54.76698,25.33586,http://www.stops.lt/vilnius/index.html#stop/2206,,
6811,,"Kremplių st.",,54.76725,25.33566,http://www.stops.lt/vilnius/index.html#stop/2207,,
738,,"Naujieji Verkiai",,54.75984,25.33217,http://www.stops.lt/vilnius/index.html#stop/2202,,
6808,,"Popieriaus st.",,54.76987,25.33202,http://www.stops.lt/vilnius/index.html#stop/2208,,
6809,,"Popieriaus st.",,54.76996,25.33261,http://www.stops.lt/vilnius/index.html#stop/2209,,
1064,,"Vaikų darželis",,54.76256,25.33563,http://www.stops.lt/vilnius/index.html#stop/2205,,
6814,,"Vaikų darželis",,54.76306,25.33591,http://www.stops.lt/vilnius/index.html#stop/2204,,
4777,,"Bireliai",,54.82118,25.32066,http://www.stops.lt/vilnius/index.html#stop/2243,,
8024,,"Bireliai",,54.82116,25.32062,http://www.stops.lt/vilnius/index.html#stop/2244,,
8009,,"Diemedis",,54.80323,25.32958,http://www.stops.lt/vilnius/index.html#stop/2230,,
8017,,"Diemedis",,54.80289,25.32974,http://www.stops.lt/vilnius/index.html#stop/2231,,
8008,,"Paežerys",,54.80030,25.33611,http://www.stops.lt/vilnius/index.html#stop/2228,,
8018,,"Paežerys",,54.80012,25.33534,http://www.stops.lt/vilnius/index.html#stop/2229,,
8010,,"Sakališkės",,54.81469,25.32187,http://www.stops.lt/vilnius/index.html#stop/2237,,
6800,,"Ežerėliai",,54.76131,25.30666,http://www.stops.lt/vilnius/index.html#stop/2130,,
6801,,"Ežerėliai",,54.76255,25.31018,http://www.stops.lt/vilnius/index.html#stop/2201,,
8005,,"Krakiškės",,54.79594,25.34992,http://www.stops.lt/vilnius/index.html#stop/2238,,
8021,,"Krakiškės",,54.79522,25.35003,http://www.stops.lt/vilnius/index.html#stop/2239,,
8004,,"Kryžiokai",,54.79219,25.35118,http://www.stops.lt/vilnius/index.html#stop/2223,,
8022,,"Kryžiokai",,54.79161,25.35127,http://www.stops.lt/vilnius/index.html#stop/2236,,
6803,,"Kurklių st.",,54.77033,25.32744,http://www.stops.lt/vilnius/index.html#stop/2211,,
6804,,"Kurklių st.",,54.77002,25.32650,http://www.stops.lt/vilnius/index.html#stop/2210,,
8006,,"Naujaneriai",,54.80173,25.34841,http://www.stops.lt/vilnius/index.html#stop/2226,,
6860,,"Ragučio st.",,54.78076,25.34263,http://www.stops.lt/vilnius/index.html#stop/2220,,
6861,,"Ragučio st.",,54.78026,25.34204,http://www.stops.lt/vilnius/index.html#stop/2219,,
6856,,"Verkių Riešė",,54.77739,25.33811,http://www.stops.lt/vilnius/index.html#stop/2213,,
6857,,"Verkių Riešė",,54.77695,25.33699,http://www.stops.lt/vilnius/index.html#stop/2212,,
6797,,"Verkių rūmai",,54.75236,25.29645,http://www.stops.lt/vilnius/index.html#stop/2129,,
6798,,"Verkių rūmai",,54.75224,25.29599,http://www.stops.lt/vilnius/index.html#stop/2128,,
8363,,"Pagubės sodai",,54.80621,25.32679,http://www.stops.lt/vilnius/index.html#stop/2252,,
9001,,"Ąžuolynas",,54.81149,25.32357,http://www.stops.lt/vilnius/index.html#stop/2253,,
9002,,"Ąžuolynas",,54.81120,25.32366,http://www.stops.lt/vilnius/index.html#stop/2254,,
8367,,"Pagubės sodai",,54.80599,25.32749,http://www.stops.lt/vilnius/index.html#stop/2250,,
8368,,"Pagubės sodai",,54.80638,25.32727,http://www.stops.lt/vilnius/index.html#stop/2251,,
8364,,"Sakališkės",,54.81465,25.32173,http://www.stops.lt/vilnius/index.html#stop/2249,,
7358,,"Giraitės st.",,54.66898,25.23783,http://www.stops.lt/vilnius/index.html#stop/5196,,
7359,,"Giraitės st.",,54.66846,25.23816,http://www.stops.lt/vilnius/index.html#stop/5197,,
5778,,"Vinco Pietario st.",,54.67688,25.24579,http://www.stops.lt/vilnius/index.html#stop/0611,,
5779,,"Vingio parkas",,54.67280,25.23943,http://www.stops.lt/vilnius/index.html#stop/0609,,
5780,,"Vingio parkas",,54.67405,25.24199,http://www.stops.lt/vilnius/index.html#stop/0610,,
4938,,"Eglių st.",,54.67661,25.25566,http://www.stops.lt/vilnius/index.html#stop/5157,,
5531,,"Gerosios Vilties st.",,54.67102,25.24237,http://www.stops.lt/vilnius/index.html#stop/0605,,
5532,,"Gerosios Vilties st.",,54.67080,25.24196,http://www.stops.lt/vilnius/index.html#stop/0606,,
5535,,"Gerosios Vilties st.",,54.67040,25.24159,http://www.stops.lt/vilnius/index.html#stop/0607,,
7852,,"Savanorių prospektas",,54.67340,25.24700,http://www.stops.lt/vilnius/index.html#stop/0603,,
7853,,"Savanorių prospektas",,54.67403,25.24860,http://www.stops.lt/vilnius/index.html#stop/0602a,,
6366,,"Statybininkų st.",,54.67193,25.25640,http://www.stops.lt/vilnius/index.html#stop/0612,,
6410,,"Žemaitės st.",,54.67489,25.25194,http://www.stops.lt/vilnius/index.html#stop/0601,,
4686,,"Karveliškių kapinės",,54.70931,25.10116,http://www.stops.lt/vilnius/index.html#stop/5144,,
7692,,"Karveliškių kapinės",,54.70928,25.10079,http://www.stops.lt/vilnius/index.html#stop/5144a,,
7698,,"Kriaučiūnai",,54.71244,25.14919,http://www.stops.lt/vilnius/index.html#stop/3615,,
7699,,"Kriaučiūnai",,54.71200,25.15055,http://www.stops.lt/vilnius/index.html#stop/3616,,
7700,,"Papiškės",,54.71607,25.13202,http://www.stops.lt/vilnius/index.html#stop/3617,,
7701,,"Papiškės",,54.71643,25.12997,http://www.stops.lt/vilnius/index.html#stop/3618,,
7702,,"Vaivadiškės",,54.71746,25.11279,http://www.stops.lt/vilnius/index.html#stop/3619,,
7703,,"Vaivadiškės",,54.71720,25.11156,http://www.stops.lt/vilnius/index.html#stop/3620,,
7728,,"Panerių miškas",,54.61641,25.22780,http://www.stops.lt/vilnius/index.html#stop/5199,,
7729,,"Panerių miškas",,54.61701,25.22945,http://www.stops.lt/vilnius/index.html#stop/5200,,
7343,,"Prašiškės",,54.76817,25.27152,http://www.stops.lt/vilnius/index.html#stop/5191,,
7374,,"Prašiškės",,54.76860,25.27183,http://www.stops.lt/vilnius/index.html#stop/5198,,
7092,,"Skersinės st.",,54.76518,25.27190,http://www.stops.lt/vilnius/index.html#stop/5116,,
7093,,"Skersinės st.",,54.76453,25.27160,http://www.stops.lt/vilnius/index.html#stop/5115,,
7657,,"Lyta",,54.69852,25.49468,http://www.stops.lt/vilnius/index.html#stop/2384regio,,
7658,,"Lyta",,54.69808,25.49333,http://www.stops.lt/vilnius/index.html#stop/2385regio,,
7653,,"Polocko kryptis",,54.69237,25.46002,http://www.stops.lt/vilnius/index.html#stop/2380regio,,
7654,,"Polocko kryptis",,54.69250,25.45944,http://www.stops.lt/vilnius/index.html#stop/2381regio,,
7655,,"Viktariškės",,54.69346,25.48062,http://www.stops.lt/vilnius/index.html#stop/2382regio,,
7656,,"Viktariškės",,54.69299,25.47763,http://www.stops.lt/vilnius/index.html#stop/2383regio,,
7659,,"Mickūnai",,54.70245,25.51650,http://www.stops.lt/vilnius/index.html#stop/2386regio,,
10122,,"Ežero st.",,54.80919,25.22572,http://www.stops.lt/vilnius/index.html#stop/5217,,
10123,,"Ežero st.",,54.80880,25.22401,http://www.stops.lt/vilnius/index.html#stop/5218,,
10089,,"Mažoji Riešė",,54.80256,25.20298,http://www.stops.lt/vilnius/index.html#stop/5207,,
10091,,"Mažoji Riešė",,54.80298,25.20327,http://www.stops.lt/vilnius/index.html#stop/5208,,
10095,,"Bendorėliai",,54.79022,25.19560,http://www.stops.lt/vilnius/index.html#stop/5211,,
10096,,"Bendorėliai",,54.78930,25.19491,http://www.stops.lt/vilnius/index.html#stop/5212,,
10092,,"Bendoriai",,54.79505,25.19800,http://www.stops.lt/vilnius/index.html#stop/5209,,
10094,,"Bendoriai",,54.79589,25.19782,http://www.stops.lt/vilnius/index.html#stop/5210,,
10099,,"Durpynas",,54.76990,25.19732,http://www.stops.lt/vilnius/index.html#stop/5215,,
10100,,"Durpynas",,54.77010,25.19560,http://www.stops.lt/vilnius/index.html#stop/5216,,
10097,,"Klevinė",,54.78092,25.19315,http://www.stops.lt/vilnius/index.html#stop/5213,,
10098,,"Klevinė",,54.78039,25.19251,http://www.stops.lt/vilnius/index.html#stop/5214,,
8828,,"Bukiškių st.",,54.75776,25.20586,http://www.stops.lt/vilnius/index.html#stop/5015,,
6587,,"Kaukaro st.",,54.70665,25.21577,http://www.stops.lt/vilnius/index.html#stop/1815,,
6588,,"Kaukaro st.",,54.70555,25.21579,http://www.stops.lt/vilnius/index.html#stop/3220,,
6597,,"Spaudos rūmai",,54.70361,25.22353,http://www.stops.lt/vilnius/index.html#stop/1810,,
6591,,"Troleibusų parkas",,54.70363,25.21940,http://www.stops.lt/vilnius/index.html#stop/1813,,
6476,,"Pal. Jurgio Matulaičio bažnyčia",,54.71178,25.22678,http://www.stops.lt/vilnius/index.html#stop/1803,,
6651,,"Pal. Jurgio Matulaičio bažnyčia",,54.71240,25.22824,http://www.stops.lt/vilnius/index.html#stop/1818,,
6475,,"Šaulių sąjunga",,54.70909,25.22607,http://www.stops.lt/vilnius/index.html#stop/1805,,
4990,,"Sietyno st.",,54.70037,25.22343,http://www.stops.lt/vilnius/index.html#stop/5166,,
5643,,"Sietyno st.",,54.69858,25.22124,http://www.stops.lt/vilnius/index.html#stop/5176,,
928,,"Spaudos rūmai",,54.70263,25.22377,http://www.stops.lt/vilnius/index.html#stop/1811,,
5722,,"Spaudos rūmai",,54.70417,25.22547,http://www.stops.lt/vilnius/index.html#stop/1809,,
5619,,"Viršuliškės",,54.70649,25.22676,http://www.stops.lt/vilnius/index.html#stop/1819,,
5620,,"Viršuliškės",,54.70683,25.22623,http://www.stops.lt/vilnius/index.html#stop/1808,,
6472,,"Viršuliškės",,54.70849,25.22674,http://www.stops.lt/vilnius/index.html#stop/1807,,
607,,"Kryžkelė",,54.70389,25.20987,http://www.stops.lt/vilnius/index.html#stop/1814,,
4991,,"Sietyno st.",,54.69962,25.22130,http://www.stops.lt/vilnius/index.html#stop/5167,,
7342,,"Sietyno st.",,54.69902,25.22028,http://www.stops.lt/vilnius/index.html#stop/5190,,
992,,"Teodoro Narbuto st.",,54.70022,25.23021,http://www.stops.lt/vilnius/index.html#stop/1812,,
7415,,"Teodoro Narbuto st.",,54.70018,25.22967,http://www.stops.lt/vilnius/index.html#stop/1820,,
7416,,"Teodoro Narbuto st.",,54.69995,25.23016,http://www.stops.lt/vilnius/index.html#stop/1718,,
5613,,"Ąžuolyno st.",,54.70510,25.23405,http://www.stops.lt/vilnius/index.html#stop/1816,,
5614,,"Ąžuolyno st.",,54.70479,25.23527,http://www.stops.lt/vilnius/index.html#stop/1817,,
7941,,"Burbiškės",,54.66680,25.25275,http://www.stops.lt/vilnius/index.html#stop/2402,,
5546,,"Baldai",,54.65066,25.21825,http://www.stops.lt/vilnius/index.html#stop/2410,,
5588,,"Baldai",,54.64983,25.21614,http://www.stops.lt/vilnius/index.html#stop/2411,,
5587,,"Pakalniškių st.",,54.65416,25.22384,http://www.stops.lt/vilnius/index.html#stop/2409,,
857,,"Riovonys",,54.65967,25.23359,http://www.stops.lt/vilnius/index.html#stop/2406,,
5573,,"Riovonys",,54.65893,25.23233,http://www.stops.lt/vilnius/index.html#stop/2407,,
6851,,"Sausupio st.",,54.64722,25.21217,http://www.stops.lt/vilnius/index.html#stop/2412,,
5567,,"Vaduvos st.",,54.64487,25.20712,http://www.stops.lt/vilnius/index.html#stop/2414,,
6850,,"Vaduvos st.",,54.64438,25.20665,http://www.stops.lt/vilnius/index.html#stop/2415,,
5542,,"Vilkpėdės st.",,54.66478,25.23679,http://www.stops.lt/vilnius/index.html#stop/2404,,
5543,,"Vilkpėdės st.",,54.66331,25.23548,http://www.stops.lt/vilnius/index.html#stop/2405,,
5554,,"Žemieji Paneriai",,54.64608,25.20948,http://www.stops.lt/vilnius/index.html#stop/2413,,
7553,,"Jankiškių st.",,54.64537,25.19468,http://www.stops.lt/vilnius/index.html#stop/2422,,
7554,,"Jankiškių st.",,54.64506,25.19522,http://www.stops.lt/vilnius/index.html#stop/2423,,
5570,,"Šaltupio st.",,54.64676,25.19113,http://www.stops.lt/vilnius/index.html#stop/2419,,
5571,,"Šaltupio st.",,54.64733,25.19036,http://www.stops.lt/vilnius/index.html#stop/2420,,
5594,,"Ūmėdžių st.",,54.64262,25.20425,http://www.stops.lt/vilnius/index.html#stop/2416,,
1076,,"Valkininkų st.",,54.64372,25.20184,http://www.stops.lt/vilnius/index.html#stop/2418,,
5557,,"Valkininkų st.",,54.64406,25.20256,http://www.stops.lt/vilnius/index.html#stop/2417,,
9384,,"Pakalniškių st.",,54.65453,25.22513,http://www.stops.lt/vilnius/index.html#stop/2408,,
8374,,"Titnago st.",,54.65049,25.18459,http://www.stops.lt/vilnius/index.html#stop/2421a,,
8311,,"Vilkpėdės žiedas",,54.66563,25.24565,http://www.stops.lt/vilnius/index.html#stop/2424,,
8312,,"Vilkpėdės žiedas",,54.66575,25.24501,http://www.stops.lt/vilnius/index.html#stop/2425,,
5846,,"Jono Kazlausko st.",,54.72145,25.28502,http://www.stops.lt/vilnius/index.html#stop/2014,,
5848,,"Jono Kazlausko st.",,54.72241,25.28381,http://www.stops.lt/vilnius/index.html#stop/0801,,
5125,,"Kareivių st.",,54.71989,25.30161,http://www.stops.lt/vilnius/index.html#stop/0808,,
6873,,"Kareivių st.",,54.72062,25.30316,http://www.stops.lt/vilnius/index.html#stop/0812,,
5128,,"Pramogų arena",,54.71553,25.28947,http://www.stops.lt/vilnius/index.html#stop/0805,,
6846,,"Pramogų arena",,54.71507,25.28830,http://www.stops.lt/vilnius/index.html#stop/0804,,
5494,,"Valakampių tiltas",,54.72356,25.30725,http://www.stops.lt/vilnius/index.html#stop/0819,,
6874,,"Valakampių tiltas",,54.72409,25.30849,http://www.stops.lt/vilnius/index.html#stop/0820,,
5127,,"Verkių st.",,54.71687,25.29360,http://www.stops.lt/vilnius/index.html#stop/0807,,
6871,,"Verkių st.",,54.71732,25.29562,http://www.stops.lt/vilnius/index.html#stop/0806,,
5080,,"Licėjus",,54.71294,25.27800,http://www.stops.lt/vilnius/index.html#stop/0710,,
5131,,"Pramogų arena",,54.71508,25.28573,http://www.stops.lt/vilnius/index.html#stop/2015,,
7589,,"Povilo Lukšio st.",,54.71072,25.30239,http://www.stops.lt/vilnius/index.html#stop/0921,,
5013,,"Šiaurės miestelis",,54.71139,25.30392,http://www.stops.lt/vilnius/index.html#stop/0922,,
5022,,"Autobusų parkas",,54.72092,25.29595,http://www.stops.lt/vilnius/index.html#stop/5177,,
5147,,"Autobusų parkas",,54.72216,25.29669,http://www.stops.lt/vilnius/index.html#stop/0813,,
6847,,"Verkių st.",,54.71843,25.29553,http://www.stops.lt/vilnius/index.html#stop/0823,,
7691,,"Žalgirio st.",,54.70378,25.28221,http://www.stops.lt/vilnius/index.html#stop/0711,,
5086,,"Kareivių st.",,54.71859,25.30393,http://www.stops.lt/vilnius/index.html#stop/0810,,
6668,,"Kareivių st.",,54.71934,25.30356,http://www.stops.lt/vilnius/index.html#stop/0811,,
5508,,"Šaltinėlio st.",,54.72657,25.29674,http://www.stops.lt/vilnius/index.html#stop/0817,,
6671,,"Šaltinėlio st.",,54.72541,25.29826,http://www.stops.lt/vilnius/index.html#stop/0816,,
5505,,"Žirmūnų  žiedas",,54.72666,25.29710,http://www.stops.lt/vilnius/index.html#stop/0818,,
5149,,"Žirmūnų seniūnija",,54.72190,25.30071,http://www.stops.lt/vilnius/index.html#stop/0814,,
5154,,"Žirmūnų seniūnija",,54.72236,25.29994,http://www.stops.lt/vilnius/index.html#stop/0815,,
8463,,"Licėjus",,54.71314,25.27692,http://www.stops.lt/vilnius/index.html#stop/2016,,
9565,,"Šiaurės miestelis",,54.71152,25.29786,http://www.stops.lt/vilnius/index.html#stop/0924,,
9566,,"Šiaurės miestelis",,54.71119,25.29938,http://www.stops.lt/vilnius/index.html#stop/0925,,
9637,,"Jono Galvydžio st.",,54.71193,25.29239,http://www.stops.lt/vilnius/index.html#stop/0926,,
9638,,"Ulonų st.",,54.70867,25.29107,http://www.stops.lt/vilnius/index.html#stop/0927,,
9640,,"Ulonų st.",,54.70878,25.29082,http://www.stops.lt/vilnius/index.html#stop/0928,,
7331,,"Žygio st.",,54.70452,25.28923,http://www.stops.lt/vilnius/index.html#stop/5187,,
7044,,"Apkasų st.",,54.70400,25.29261,http://www.stops.lt/vilnius/index.html#stop/0918,,
7045,,"Apkasų st.",,54.70389,25.29128,http://www.stops.lt/vilnius/index.html#stop/0917,,
7042,,"Minties st.",,54.70507,25.29888,http://www.stops.lt/vilnius/index.html#stop/0919,,
7043,,"Minties st.",,54.70510,25.29952,http://www.stops.lt/vilnius/index.html#stop/0920,,
7325,,"Herkaus Manto st.",,54.70109,25.28649,http://www.stops.lt/vilnius/index.html#stop/5185,,
7326,,"Herkaus Manto st.",,54.70058,25.28628,http://www.stops.lt/vilnius/index.html#stop/5186,,
7324,,"Rinktinės st.",,54.69521,25.28825,http://www.stops.lt/vilnius/index.html#stop/5184,,
7337,,"Rinktinės st.",,54.69517,25.28804,http://www.stops.lt/vilnius/index.html#stop/5188,,
7322,,"Žvejų st.",,54.69004,25.28870,http://www.stops.lt/vilnius/index.html#stop/5182,,
7323,,"Žvejų st.",,54.69170,25.28910,http://www.stops.lt/vilnius/index.html#stop/5183,,
5664,,"„Žalgirio“ stadionas",,54.69497,25.28955,http://www.stops.lt/vilnius/index.html#stop/0907,,
5665,,"„Žalgirio“ stadionas",,54.69477,25.28954,http://www.stops.lt/vilnius/index.html#stop/0111,,
5662,,"Šeimyniškių st.",,54.69566,25.29616,http://www.stops.lt/vilnius/index.html#stop/0908,,
6660,,"Šeimyniškių st.",,54.69556,25.29687,http://www.stops.lt/vilnius/index.html#stop/0112,,
1032,,"Mikalojaus Katkaus st.",,54.70078,25.29246,http://www.stops.lt/vilnius/index.html#stop/0912,,
6544,,"Mikalojaus Katkaus st.",,54.70009,25.29290,http://www.stops.lt/vilnius/index.html#stop/0911,,
6542,,"Trimitų st.",,54.70299,25.28887,http://www.stops.lt/vilnius/index.html#stop/0913,,
6546,,"Tuskulėnai",,54.69702,25.29706,http://www.stops.lt/vilnius/index.html#stop/0909,,
6547,,"Tuskulėnai",,54.69773,25.29658,http://www.stops.lt/vilnius/index.html#stop/0910,,
5658,,"Minties st.",,54.70362,25.30416,http://www.stops.lt/vilnius/index.html#stop/0904,,
6666,,"Minties st.",,54.70418,25.30454,http://www.stops.lt/vilnius/index.html#stop/0903,,
5088,,"Šiaurės miestelis",,54.71083,25.30465,http://www.stops.lt/vilnius/index.html#stop/0902,,
5606,,"Šiaurės miestelis",,54.71182,25.30509,http://www.stops.lt/vilnius/index.html#stop/0901,,
5661,,"Tuskulėnų rimties parkas",,54.69757,25.30032,http://www.stops.lt/vilnius/index.html#stop/0906,,
6665,,"Tuskulėnų rimties parkas",,54.69823,25.30130,http://www.stops.lt/vilnius/index.html#stop/0905,,
5087,,"Žirmūnai",,54.71595,25.30509,http://www.stops.lt/vilnius/index.html#stop/0822,,
6667,,"Žirmūnai",,54.71666,25.30545,http://www.stops.lt/vilnius/index.html#stop/0821,,
8001,,"Ąžuolų st.",,54.72050,25.19473,http://www.stops.lt/vilnius/index.html#stop/4414,,
8002,,"Ąžuolų st.",,54.72171,25.19339,http://www.stops.lt/vilnius/index.html#stop/4415,,
318,,"Zujūnai",,54.72674,25.18153,http://www.stops.lt/vilnius/index.html#stop/4406,,
7394,,"Zujūnai",,54.72657,25.18209,http://www.stops.lt/vilnius/index.html#stop/4410,,
7844,,"Senosios Gineitiškės",,54.73590,25.18928,http://www.stops.lt/vilnius/index.html#stop/4412,,
7845,,"Senosios Gineitiškės",,54.73565,25.19373,http://www.stops.lt/vilnius/index.html#stop/4413,,
7392,,"Antežeriai",,54.73359,25.18620,http://www.stops.lt/vilnius/index.html#stop/4408,,
7393,,"Antežeriai",,54.73250,25.18542,http://www.stops.lt/vilnius/index.html#stop/4409,,
5456,,"Saltoniškės",,54.70239,25.26438,http://www.stops.lt/vilnius/index.html#stop/0107,,
5533,,"Studentų st.",,54.69718,25.26337,http://www.stops.lt/vilnius/index.html#stop/0320,,
5534,,"Studentų st.",,54.69724,25.26430,http://www.stops.lt/vilnius/index.html#stop/0108,,
6436,,"Kęstučio st.",,54.69121,25.25158,http://www.stops.lt/vilnius/index.html#stop/0304,,
6437,,"Kęstučio st.",,54.68948,25.25190,http://www.stops.lt/vilnius/index.html#stop/0303,,
6434,,"Latvių st.",,54.69385,25.25072,http://www.stops.lt/vilnius/index.html#stop/0307,,
6435,,"Latvių st.",,54.69433,25.25075,http://www.stops.lt/vilnius/index.html#stop/0308,,
6433,,"Sėlių st.",,54.69744,25.24977,http://www.stops.lt/vilnius/index.html#stop/0311,,
5880,,"Liubarto tiltas",,54.68893,25.25691,http://www.stops.lt/vilnius/index.html#stop/0301,,
6438,,"Liubarto tiltas",,54.68908,25.25574,http://www.stops.lt/vilnius/index.html#stop/0302,,
6432,,"Sėlių st.",,54.69840,25.24868,http://www.stops.lt/vilnius/index.html#stop/0312,,
6430,,"Žvėrynas",,54.69872,25.24565,http://www.stops.lt/vilnius/index.html#stop/0313,,
4898,,"Žvėryno žiedas",,54.69840,25.24611,http://www.stops.lt/vilnius/index.html#stop/5151,,
6397,,"Lietuvos edukologijos universitetas",,54.69830,25.26121,http://www.stops.lt/vilnius/index.html#stop/0318,,
6404,,"Lietuvos edukologijos universitetas",,54.69870,25.26133,http://www.stops.lt/vilnius/index.html#stop/0319,,
814,,"Panorama",,54.69915,25.25704,http://www.stops.lt/vilnius/index.html#stop/0317,,
6396,,"Panorama",,54.69892,25.25607,http://www.stops.lt/vilnius/index.html#stop/0316,,
5906,,"Žvėrynas",,54.69948,25.24320,http://www.stops.lt/vilnius/index.html#stop/0315,,
6398,,"Žvėrynas",,54.69938,25.24499,http://www.stops.lt/vilnius/index.html#stop/0314,,
5220,,"Saltoniškės",,54.70123,25.26289,http://www.stops.lt/vilnius/index.html#stop/0321,,
5289,,"Saltoniškės",,54.70233,25.26156,http://www.stops.lt/vilnius/index.html#stop/1901,,
632,,"Džocharo Dudajevo skv.",,54.69583,25.25609,http://www.stops.lt/vilnius/index.html#stop/0309,,
5872,,"Džocharo Dudajevo skv.",,54.69585,25.25585,http://www.stops.lt/vilnius/index.html#stop/0310,,
1116,,"Vytauto st.",,54.69117,25.25643,http://www.stops.lt/vilnius/index.html#stop/0305,,
5875,,"Vytauto st.",,54.69173,25.25622,http://www.stops.lt/vilnius/index.html#stop/0306,,
5462,,"Linkmenų st.",,54.70454,25.27197,http://www.stops.lt/vilnius/index.html#stop/0702,,
5499,,"Linkmenų st.",,54.70477,25.26987,http://www.stops.lt/vilnius/index.html#stop/0701,,